Désignation,Référence,Enseigne,Représentant,Famille,Secteur,Tél,adresse,code_postal,commune,TOPCLIENT,longitude,latitude,result_score,result_score_next,result_label,result_type,result_id,result_housenumber,result_name,result_street,result_postcode,result_city,result_context,result_citycode,result_oldcitycode,result_oldcity,result_district,result_status
A SERENITA (ACCUEIL DE JOUR),17604,,Dorian SANCHEZ,EHPAD,Sud-Est,04 95 52 29 96,AVENUE MARECHAL MONCEY,20090,AJACCIO,-,8.734326,41.930714,0.9232476767676767,,Avenue Maréchal MONCEY 20090 Ajaccio,street,2A004_0869,,Avenue Maréchal MONCEY,Avenue Maréchal MONCEY,20090,Ajaccio,"2A, Corse-du-Sud, Corse",2A004,,,,ok
ABBE MARCEL DEHOUX EHPAD,6436,,Aurore Auffret,EHPAD,Bretagne,02  99 76 32 31,17 Rue de la Fontaine,35680,BAIS,-,-1.291608,48.01007,0.90065,0.6450935537190082,17 Rue de la Fontaine 35680 Bais,housenumber,35014_0035_00017,17,17 Rue de la Fontaine,Rue de la Fontaine,35680,Bais,"35, Ille-et-Vilaine, Bretagne",35014,,,,ok
ABRAPA REICHSHOFFEN EHPAD,5441,,Celine LUCION,EHPAD,Grand Nord-Est,03 88 05 89 99,"1, place de la Liberté",67110,REICHSHOFFEN,-,7.665719,48.934083,0.9008663636363635,0.7467344186046511,1 Place de la Liberte 67110 Reichshoffen,housenumber,67388_1280_00001,1,1 Place de la Liberte,Place de la Liberte,67110,Reichshoffen,"67, Bas-Rhin, Grand Est",67388,,,,ok
ACANTHE EHPAD,2659,,Caroline VILLEMUR,EHPAD,Sud-Ouest,05 59 41 21 21,3 rue Francis Jammes,64200,BIARRITZ,-,-1.555311,43.462039,0.9114628571428571,,3 Rue Francis Jammes 64200 Biarritz,housenumber,64122_0669_00003,3,3 Rue Francis Jammes,Rue Francis Jammes,64200,Biarritz,"64, Pyrénées-Atlantiques, Nouvelle-Aquitaine",64122,,,,ok
ADELAIDE EHPAD,5575,EMERA,Aurelien COURTOISIER,EHPAD,Centre-Est,04 50 08 50 00,1 rue Emile Romanet,74000,ANNECY,-,6.123242,45.907914,0.905840909090909,,1 Rue Émile Romanet 74000 Annecy,housenumber,74010_0780_00001,1,1 Rue Émile Romanet,Rue Émile Romanet,74000,Annecy,"74, Haute-Savoie, Auvergne-Rhône-Alpes",74010,74010,Annecy,,ok
ADINA EHPAD,9412,,Caroline VILLEMUR,EHPAD,Sud-Ouest,05 59 51 69 00,Impasse Adina,64310,ASCAIN,-,-1.617774,43.346789,0.8787681118881119,,Impasse Adina 64310 Ascain,street,64065_0600,,Impasse Adina,Impasse Adina,64310,Ascain,"64, Pyrénées-Atlantiques, Nouvelle-Aquitaine",64065,,,,ok
ADINDUNEN EHPAD,3341,,Caroline VILLEMUR,EHPAD,Sud-Ouest,05 59 37 06 77,1 place sainte Eulalie,64220,ST JEAN PIED DE PORT,-,-1.235867,43.165213,0.7027588429752065,,Rue Sainte-Eulalie 64220 Saint-Jean-Pied-de-Port,street,64485_0141,,Rue Sainte-Eulalie,Rue Sainte-Eulalie,64220,Saint-Jean-Pied-de-Port,"64, Pyrénées-Atlantiques, Nouvelle-Aquitaine",64485,,,,ok
AGELIA EHPAD,7735,EMERA,Aurelien COURTOISIER,EHPAD,Centre-Est,04 79 62 09 19,22 RUE JEAN JAURES,73000,CHAMBERY,-,5.91157,45.570875,0.7564117224880383,,22 Avenue Jean Jaurès 73000 Chambéry,housenumber,73065_2040_00022,22,22 Avenue Jean Jaurès,Avenue Jean Jaurès,73000,Chambéry,"73, Savoie, Auvergne-Rhône-Alpes",73065,,,,ok
ALBERT ARTILLAND EHPAD,5160,,Dorian SANCHEZ,EHPAD,Sud-Est,04 90 65 64 14,186 Chem. des Florans,84410,BEDOIN,-,5.177689,44.126553,0.7448132467532467,,Chemin des Florans 84410 Bédoin,street,84017_0156,,Chemin des Florans,Chemin des Florans,84410,Bédoin,"84, Vaucluse, Provence-Alpes-Côte d'Azur",84017,,,,ok
ALBERT MORLOT EHPAD,3875,,Aurelien COURTOISIER,EHPAD,Centre-Est,04 78 94 06 10,2 rue Nicolas Copernic,69150,DECINES CHARPIEU,-,4.94094,45.767638,0.9155314141414141,,2 Rue Nicolas Copernic 69150 Décines-Charpieu,housenumber,69275_a060_00002,2,2 Rue Nicolas Copernic,Rue Nicolas Copernic,69150,Décines-Charpieu,"69, Rhône, Auvergne-Rhône-Alpes",69275,,,,ok
ALEXANDRA EHPAD,7948,,Dorian SANCHEZ,EHPAD,Sud-Est,04 94 63 43 85,10 CHEMIN PIERRE VEZZOSO,83190,OLLIOULES,-,5.877666,43.138317,0.9134363636363636,0.5751093939393939,10 Chemin Pierre Vezzoso 83190 Ollioules,housenumber,83090_j3d1sb_00010,10,10 Chemin Pierre Vezzoso,Chemin Pierre Vezzoso,83190,Ollioules,"83, Var, Provence-Alpes-Côte d'Azur",83090,,,,ok
ALEXANDRE PLANCHER RESIDENCE,12548,,Aurore Auffret,EHPAD,Bretagne,02 40 78 25 25,14 Allée du Parc des Mahaudieres,44400,REZE,-,-1.5624,47.187453,0.9197985200845666,,14 Allée du Parc des Mahaudières 44400 Rezé,housenumber,44143_2807_00014,14,14 Allée du Parc des Mahaudières,Allée du Parc des Mahaudières,44400,Rezé,"44, Loire-Atlantique, Pays de la Loire",44143,,,,ok
AMBROISIE EHPAD,2658,,Caroline VILLEMUR,EHPAD,Sud-Ouest,05 59 41 20 61,8 avenue Hautin,64200,BIARRITZ,-,-1.555871,43.47664,0.6480362337662338,,8 Rue du Hautin 64200 Biarritz,housenumber,64122_0855_00008,8,8 Rue du Hautin,Rue du Hautin,64200,Biarritz,"64, Pyrénées-Atlantiques, Nouvelle-Aquitaine",64122,,,,ok
ANDREE ROCHEFORT EHPAD,2120,,Aurore Auffret,EHPAD,Bretagne,02 40 62 30 30,10 boulevard de Civanam,44510,LE POULIGUEN,-,-2.433839,47.277459,0.9125690476190474,,10 Boulevard de Civanam 44510 Le Pouliguen,housenumber,44135_0350_00010,10,10 Boulevard de Civanam,Boulevard de Civanam,44510,Le Pouliguen,"44, Loire-Atlantique, Pays de la Loire",44135,,,,ok
ANNA HAMILTON RESIDENCE EHPAD,4042,,Caroline VILLEMUR,EHPAD,Sud-Ouest,05 56 23 46 23,Fondation Maison de Santé Protestante,33760,TARGON,-,-0.25311,44.753116,0.36453382126348227,0.3517074331550802,Route de Sauveterre 33760 Targon,street,33523_0234,,Route de Sauveterre,Route de Sauveterre,33760,Targon,"33, Gironde, Nouvelle-Aquitaine",33523,,,,ok
ARC EN CIEL EHPAD,1275,COLISEE,Caroline VILLEMUR,EHPAD,Sud-Ouest,05 61 16 40 00,12 rue Marie Louise Dissard,31300,TOULOUSE,-,1.367944,43.60265,0.9322181385281384,,12 Rue Marie Louise Dissard 31300 Toulouse,housenumber,31555_5683_00012,12,12 Rue Marie Louise Dissard,Rue Marie Louise Dissard,31300,Toulouse,"31, Haute-Garonne, Occitanie",31555,,,,ok
ARC EN CIEL LES HESPERIDES EHPAD,15991,,Laurent DURIEUX,EHPAD,Val de Loire,02 43 97 22 50,4 Rue Marcel Graffin,72600,NEUFCHATEL EN SAOSNOIS,-,0.247245,48.373537,0.9136533395176252,,4 Rue Marcel Graffin 72600 Neufchâtel-en-Saosnois,housenumber,72215_0356_00004,4,4 Rue Marcel Graffin,Rue Marcel Graffin,72600,Neufchâtel-en-Saosnois,"72, Sarthe, Pays de la Loire",72215,,,,ok
ARDITEYA EHPAD,8193,,Caroline VILLEMUR,EHPAD,Sud-Ouest,05 59 29 39 70,A/A de Madame JUAN,64250,CAMBO LES BAINS,-,-1.373663,43.358428,0.5517440074211502,0.5196943356643356,Chemin de Macaye 64250 Cambo-les-Bains,street,64160_aolhqp,,Chemin de Macaye,Chemin de Macaye,64250,Cambo-les-Bains,"64, Pyrénées-Atlantiques, Nouvelle-Aquitaine",64160,,,,ok
ARPEGE EHPAD RESIDENCE DOMUSVI,4473,DOMUSVI,Caroline VILLEMUR,EHPAD,Sud-Ouest,05 59 03 60 00,"66, avenue d'Espagne",64600,ANGLET,-,-1.525113,43.477224,0.9159454545454546,,66 Avenue d' Espagne 64600 Anglet,housenumber,64024_0740_00066,66,66 Avenue d' Espagne,Avenue d' Espagne,64600,Anglet,"64, Pyrénées-Atlantiques, Nouvelle-Aquitaine",64024,,,,ok
ASBL EVASION (ETABLISSEMENT BELGE),13663,,Export,EHPAD,Export,003265457827,"9, rue de Bavay",7380,QUIEVRAIN,-,3.251647,50.179529,0.4967077134986225,0.48791155844155837,9 Rue de Bavay 59400 Cambrai,housenumber,59122_0270_00009,9,9 Rue de Bavay,Rue de Bavay,59400,Cambrai,"59, Nord, Hauts-de-France",59122,,,,ok
ASSOCIATION LA PROVIDENCE,16287,,Herve QUELO,EHPAD,Centre Auvergne,04 73 89 19 81,9 rue de la Safournière,63500,ISSOIRE,-,3.247061,45.539536,0.9091563144963144,,9 Rue de la Safourniere 63500 Issoire,housenumber,63178_1470_00009,9,9 Rue de la Safourniere,Rue de la Safourniere,63500,Issoire,"63, Puy-de-Dôme, Auvergne-Rhône-Alpes",63178,,,,ok
ASSOCIATION MAISON SAINT JOSEPH,16036,,Aurore Auffret,EHPAD,Bretagne,02 98 84 55 90,14 PLACE SAINTE BARBE,29860,BOURG BLANC,-,-4.503737,48.499089,0.906627226107226,,14 Place Sainte-barbe 29860 Bourg-Blanc,housenumber,29015_0392_00014,14,14 Place Sainte-barbe,Place Sainte-barbe,29860,Bourg-Blanc,"29, Finistère, Bretagne",29015,,,,ok
ASSOCIATION MARIS STELLA EHPAD,12341,,Dorian SANCHEZ,EHPAD,Sud-Est,04 95 37 05 60,LIEU DIT TETTOLA,20217,SAINT FLORENT,-,9.318742,42.689949,0.609061797040169,,Route de Tettola 20217 Saint-Florent,street,2B298_0035,,Route de Tettola,Route de Tettola,20217,Saint-Florent,"2B, Haute-Corse, Corse",2B298,,,,ok
AU FIL DE L'EAU EHPAD,4316,,Herve QUELO,EHPAD,Centre Auvergne,04 73 33 43 83,"6, rue du Pont Chaput",63530,VOLVIC,-,3.039758,45.871077,0.8447253443526169,,Rue du Pont Chaput 63530 Volvic,street,63470_0340,,Rue du Pont Chaput,Rue du Pont Chaput,63530,Volvic,"63, Puy-de-Dôme, Auvergne-Rhône-Alpes",63470,,,,ok
AU GRE DU VENT EHPAD,12750,,Laurent DURIEUX,EHPAD,Val de Loire,05 55 84 89 89,Place Michel Labrousse,19240,ALLASSAC,-,1.476685,45.258458,0.9027044963144962,,Place Michel Labrousse 19240 Allassac,street,19005_0090,,Place Michel Labrousse,Place Michel Labrousse,19240,Allassac,"19, Corrèze, Nouvelle-Aquitaine",19005,,,,ok
AUBIN EHPAD,17043,,Dorian SANCHEZ,EHPAD,Sud-Est,05 65 63 14 65,11 Rue Delshens,12110,AUBIN,-,2.245045,44.528137,0.8880608417508417,,11 Rue Delshens 12110 Aubin,housenumber,12013_0410_00011,11,11 Rue Delshens,Rue Delshens,12110,Aubin,"12, Aveyron, Occitanie",12013,,,,ok
AUGUSTE ARVIER EHPAD,6005,,Aurelien COURTOISIER,EHPAD,Centre-Est,03 80 20 12 36,"9, route de Dijon",21360,BLIGNY SUR OUCHE,-,4.66928,47.108916,0.9050590442890442,,9 Route de Dijon 21360 Bligny-sur-Ouche,housenumber,21087_0100_00009,9,9 Route de Dijon,Route de Dijon,21360,Bligny-sur-Ouche,"21, Côte-d'Or, Bourgogne-Franche-Comté",21087,,,,ok
AUX TROIS TILLEULS EHPAD,7925,,Dorian SANCHEZ,EHPAD,Sud-Est,04 98 05 29 30,CHEMIN DU PRUGNON,83470,ST MAXIMIN LA STE BAUME,-,5.854124,43.464206,0.7601965289256198,0.615006936026936,Chemin du Prugnon 83470 Saint-Maximin-la-Sainte-Baume,street,83116_0737,,Chemin du Prugnon,Chemin du Prugnon,83470,Saint-Maximin-la-Sainte-Baume,"83, Var, Provence-Alpes-Côte d'Azur",83116,,,,ok
BAPTISTE PAMS EHPAD,2629,,Dorian SANCHEZ,EHPAD,Sud-Est,04 68 39 10 17,Route nationale 115,66150,ARLES SUR TECH,-,2.648277,42.466946,0.9010363636363635,,Route Nationale 115 66150 Arles-sur-Tech,street,66009_kodz6j,,Route Nationale 115,Route Nationale 115,66150,Arles-sur-Tech,"66, Pyrénées-Orientales, Occitanie",66009,,,,ok
BATAILLE EHPAD,4093,,Laurent DURIEUX,EHPAD,Val de Loire,05 65 34 54 15,14 chemin Bataillé,46100,FIGEAC,-,2.040725,44.611592,0.8292583422459893,0.512380110864745,14 chemin de Bataillé 46100 Figeac,housenumber,46102_0190_00014,14,14 chemin de Bataillé,chemin de Bataillé,46100,Figeac,"46, Lot, Occitanie",46102,,,,ok
BEAU RIVAGE EHPAD,3848,,Caroline VILLEMUR,EHPAD,Sud-Ouest,05 59 23 04 08,12 avenue Beau Rivage,64200,BIARRITZ,-,6.707255,43.373718,0.574486883116883,0.5402798086124401,12 avenue beau rivage 83380 Roquebrune-sur-Argens,housenumber,83107_0282_00012,12,12 avenue beau rivage,avenue beau rivage,83380,Roquebrune-sur-Argens,"83, Var, Provence-Alpes-Côte d'Azur",83107,,,,ok
BEAU SOLEIL EHPAD VALREAS,6342,,Dorian SANCHEZ,EHPAD,Sud-Est,04 90 35 52 12,38 BIS IMPASSE BEAU SOLEIL,84600,VALREAS,-,4.988989,44.379278,0.7628175324675324,,38b Impasse Beau Soleil 84600 Valréas,housenumber,84138_0225_00038_b,38b,38b Impasse Beau Soleil,Impasse Beau Soleil,84600,Valréas,"84, Vaucluse, Provence-Alpes-Côte d'Azur",84138,,,,ok
BEL ADOUR EHPAD,1228,,Caroline VILLEMUR,EHPAD,Sud-Ouest,05 62 69 72 21,162 chemin des Carrières,32400,RISCLE,X,-0.088314,43.652226,0.9065817690417689,,162 Chemin des Carrières 32400 Riscle,housenumber,32344_0320_00162,162,162 Chemin des Carrières,Chemin des Carrières,32400,Riscle,"32, Gers, Occitanie",32344,32344,Riscle,,ok
BEL AIR EHPAD,15720,,Caroline VILLEMUR,EHPAD,Sud-Ouest,05 63 53 71 71,route D'Albi,81340,VALENCE D'ALBIGEOIS,-,2.386519,44.014689,0.9042276555023923,,Route d'Albi 81340 Valence-d'Albigeois,street,81308_d6leje,,Route d'Albi,Route d'Albi,81340,Valence-d'Albigeois,"81, Tarn, Occitanie",81308,,,,ok
BEL FONTAINE EHPAD,4859,,Aurelien COURTOISIER,EHPAD,Centre-Est,04 79 59 47 56,A l'attention de Mme Chloé SENELLE,73130,LA CHAMBRE,-,6.297461,45.365384,0.43476757575757574,0.4255103931203931,Route de la Pontière 73130 La Chambre,street,73067_0120,,Route de la Pontière,Route de la Pontière,73130,La Chambre,"73, Savoie, Auvergne-Rhône-Alpes",73067,,,,ok
BELFONTAINE,8799,UGECAM,Aurelien COURTOISIER,EHPAD,Centre-Est,03 80 53 92 50,"3, rue Georges Bourguoin",21121,FONTAINE LES DIJON,-,5.029866,47.352368,0.8600519851576993,,3 Rue Georges Bourgoin 21121 Fontaine-lès-Dijon,housenumber,21278_1215_00003,3,3 Rue Georges Bourgoin,Rue Georges Bourgoin,21121,Fontaine-lès-Dijon,"21, Côte-d'Or, Bourgogne-Franche-Comté",21278,,,,ok
BELLEVUE EHPAD,6626,,Caroline VILLEMUR,EHPAD,Sud-Ouest,05 63 42 19 52,29 Avenue Abel Rolland,81390,BRIATEXTE,-,1.911993,43.750076,0.9095194736842104,,29 Avenue Abel Rolland 81390 Briatexte,housenumber,81039_0002_00029,29,29 Avenue Abel Rolland,Avenue Abel Rolland,81390,Briatexte,"81, Tarn, Occitanie",81039,,,,ok
BEREBISTE EHPAD,6664,ADGESSA,Caroline VILLEMUR,EHPAD,Sud-Ouest,05 59 29 66 47,Route de Pessarou,64240,LABASTIDE CLAIRENCE,-,-1.23939,43.415455,0.8363129249011856,0.5502277176015473,Route de Pessarrou 64240 La Bastide-Clairence,street,64289_0100,,Route de Pessarrou,Route de Pessarrou,64240,La Bastide-Clairence,"64, Pyrénées-Atlantiques, Nouvelle-Aquitaine",64289,,,,ok
BERNARD LESGOURGUES EHPAD,3435,,Caroline VILLEMUR,EHPAD,Sud-Ouest,05 58 72 12 38,4 Impasse de la Pépininière,40130,CAPBRETON,-,-1.437658,43.633379,0.658199443413729,0.6568921706864563,4 Impasse de la Clairiere 40130 Capbreton,housenumber,40065_1070_00004,4,4 Impasse de la Clairiere,Impasse de la Clairiere,40130,Capbreton,"40, Landes, Nouvelle-Aquitaine",40065,,,,ok
BETHESDA EHPAD,2060,,Celine LUCION,EHPAD,Grand Nord-Est,03 89 32 71 00,26 rue des Vergers,68100,MULHOUSE,-,7.340235,47.753623,0.918647217630854,,26 Rue des Vergers 68100 Mulhouse,housenumber,68224_7540_00026,26,26 Rue des Vergers,Rue des Vergers,68100,Mulhouse,"68, Haut-Rhin, Grand Est",68224,,,,ok
BETHLEEM EHPAD,17271,,Aurelien COURTOISIER,EHPAD,Centre-Est,03 85 88 84 15,15 Av. de Bethléem,71600,PARAY LE MONIAL,-,4.128373,46.452017,0.7934616528925619,0.687980101010101,15 Avenue de Bethléem 71600 Paray-le-Monial,housenumber,71342_0063_00015,15,15 Avenue de Bethléem,Avenue de Bethléem,71600,Paray-le-Monial,"71, Saône-et-Loire, Bourgogne-Franche-Comté",71342,,,,ok
BON ACCUEIL EHPAD,7328,,Aurelien COURTOISIER,EHPAD,Centre-Est,04 74 40 33 09,34 RUE CHARLES DE GAULLE,01150,LAGNIEU,-,5.350548,45.901654,0.773956976744186,,34 Avenue Charles de Gaulle 01150 Lagnieu,housenumber,01202_0055_00034,34,34 Avenue Charles de Gaulle,Avenue Charles de Gaulle,01150,Lagnieu,"01, Ain, Auvergne-Rhône-Alpes",01202,,,,ok
BON PASTEUR EHPAD ADGESSA,3478,ADGESSA,Caroline VILLEMUR,EHPAD,Sud-Ouest,05 56 71 49 52,ADGESSA,33540,SAINT BRICE,-,-0.1428,44.697879,0.6272433333333333,0.5521928739002933,Saint-Brice,municipality,33379,,Saint-Brice,,33540,Saint-Brice,"33, Gironde, Nouvelle-Aquitaine",33379,,,,ok
CAIRE VAL EHPAD,8798,MGEN,Dorian SANCHEZ,EHPAD,Sud-Est,04 42 50 39 44,INSTITUT BOUQUET,13840,ROGNES,-,5.347615,43.665028,0.4194808225108225,0.39641853146853145,Cours Saint - Etienne 13840 Rognes,street,13082_7950,,Cours Saint - Etienne,Cours Saint - Etienne,13840,Rognes,"13, Bouches-du-Rhône, Provence-Alpes-Côte d'Azur",13082,,,,ok
CANTO MAI EHPAD,7949,,Dorian SANCHEZ,EHPAD,Sud-Est,04 98 00 26 26,175 CHEMIN CANTO MAI,83190,OLLIOULES,-,5.879308,43.139994,0.8383607925407925,,175 Chemin de Canto Mai 83190 Ollioules,housenumber,83090_0167_00175,175,175 Chemin de Canto Mai,Chemin de Canto Mai,83190,Ollioules,"83, Var, Provence-Alpes-Côte d'Azur",83090,,,,ok
CAPA HENRI LACLAU,2579,,Caroline VILLEMUR,EHPAD,Sud-Ouest,05 59 39 44 64,Rue de la Pistole,64400,OLORON STE MARIE,-,-0.619315,43.184901,0.8189282644628099,,Rue de la Pistole 64400 Oloron-Sainte-Marie,street,64422_1430,,Rue de la Pistole,Rue de la Pistole,64400,Oloron-Sainte-Marie,"64, Pyrénées-Atlantiques, Nouvelle-Aquitaine",64422,,,,ok
CASA ASSOLELLADA,2627,,Dorian SANCHEZ,EHPAD,Sud-Est,04 68 87 12 01,"1, rue San Pluget",66400,CERET,-,2.752564,42.489671,0.640254226044226,,1 Chemin de Sant Pluget 66400 Céret,housenumber,66049_0935_00001,1,1 Chemin de Sant Pluget,Chemin de Sant Pluget,66400,Céret,"66, Pyrénées-Orientales, Occitanie",66049,,,,ok
CASTEL GIROU EHPAD,3800,DOMIDEP,Caroline VILLEMUR,EHPAD,Sud-Ouest,05 61 37 38 39,180 Avenue de Villemur,31620,CEPET,-,1.433586,43.751985,0.6491851515151514,,180 Route de Villemur 31620 Cépet,housenumber,31136_0014_00180,180,180 Route de Villemur,Route de Villemur,31620,Cépet,"31, Haute-Garonne, Occitanie",31136,,,,ok
CASTEL SAINT JACQUES EHPAD,14936,,Celine LUCION,EHPAD,Grand Nord-Est,02 35 23 43 01,229 Rue des Pommeraies,76160,ST JACQUES SUR DARNETAL,-,1.205177,49.437007,0.8422027272727272,,229 Rue des Pommeraies 76160 Saint-Jacques-sur-Darnétal,housenumber,76591_0067_00229,229,229 Rue des Pommeraies,Rue des Pommeraies,76160,Saint-Jacques-sur-Darnétal,"76, Seine-Maritime, Normandie",76591,,,,ok
CCAS DU LAC EHPAD,6850,SOLEA,Dorian SANCHEZ,EHPAD,Sud-Est,05 65 46 84 81,162 rue François Fabié,12290,PONT DE SALARS,-,2.726172,44.285353,0.9085803382663847,,162 Rue Francois Fabie 12290 Pont-de-Salars,housenumber,12185_uzfmwq_00162,162,162 Rue Francois Fabie,Rue Francois Fabie,12290,Pont-de-Salars,"12, Aveyron, Occitanie",12185,,,,ok
CCAS LA VALLEE DU CHER,15074,,Laurent DURIEUX,EHPAD,Val de Loire,02 47 80 30 00,2 place Sisley,37200,TOURS,-,0.712613,47.370577,0.7013251948051947,0.44531351097178684,Place Sisley 37000 Tours,locality,37261_4659,,Place Sisley,,37000,Tours,"37, Indre-et-Loire, Centre-Val de Loire",37261,,,,ok
CCAS LES VARENNES DE LOIRE,13398,CCAS,Laurent DURIEUX,EHPAD,Val de Loire,02 47 77 40 00,6 Rue Jean Messire,37000,TOURS,-,0.671868,47.389574,0.9096175757575756,,6 Rue Jean Messire 37000 Tours,housenumber,37261_2720_00006,6,6 Rue Jean Messire,Rue Jean Messire,37000,Tours,"37, Indre-et-Loire, Centre-Val de Loire",37261,,,,ok
CECILE BOUSQUET EHPAD-MULTI,0302,,Caroline VILLEMUR,EHPAD,Sud-Ouest,05 34 26 92 69,129 avenue Aimé Césaire,31660,BESSIERES,-,1.596978,43.782788,0.9027590442890442,,129 Avenue Aime Cesaire 31660 Bessières,housenumber,31066_0568_00129,129,129 Avenue Aime Cesaire,Avenue Aime Cesaire,31660,Bessières,"31, Haute-Garonne, Occitanie",31066,,,,ok
CERILLY EHPAD,4158,,Herve QUELO,EHPAD,Centre Auvergne,04 70 67 50 29,2 avenue de la vigne,03350,CERILLY,-,2.826477,46.613329,0.7347361471861471,0.5762554545454546,2 Avenue de la Vigne au Bois 03350 Cérilly,housenumber,03048_0445_00002,2,2 Avenue de la Vigne au Bois,Avenue de la Vigne au Bois,03350,Cérilly,"03, Allier, Auvergne-Rhône-Alpes",03048,,,,ok
CHAMPFLEURI EHPAD,3947,,Aurore Auffret,EHPAD,Bretagne,02 40 26 51 82,26 avenue de l'Atlantique,44116,VIEILLEVIGNE,-,-1.442289,46.966349,0.9170149586776859,0.6278909647495362,26 Avenue de l’Atlantique 44116 Vieillevigne,housenumber,44216_0020_00026,26,26 Avenue de l’Atlantique,Avenue de l’Atlantique,44116,Vieillevigne,"44, Loire-Atlantique, Pays de la Loire",44216,,,,ok
CHARLES MICHELLAND EHPAD,13374,,Aurelien COURTOISIER,EHPAD,Centre-Est,03 85 72 01 32,29 rue Charles Michelland,71330,ST GERMAIN DU BOIS,-,5.241672,46.751471,0.8332894276094275,,29 Rue Charles Michelland 71330 Saint-Germain-du-Bois,housenumber,71419_0032_00029,29,29 Rue Charles Michelland,Rue Charles Michelland,71330,Saint-Germain-du-Bois,"71, Saône-et-Loire, Bourgogne-Franche-Comté",71419,,,,ok
CHATEAU DE BEAURECUEIL EHPAD,3941,,Dorian SANCHEZ,EHPAD,Sud-Est,04 42 37 95 00,Avenue Louis Sylvestre,13100,BEAURECUEIL,-,5.544249,43.510422,0.898170909090909,,Avenue Louis Sylvestre 13100 Beaurecueil,street,13012_8840,,Avenue Louis Sylvestre,Avenue Louis Sylvestre,13100,Beaurecueil,"13, Bouches-du-Rhône, Provence-Alpes-Côte d'Azur",13012,,,,ok
CHATEAU DE NANTOU EHPAD,15646,,Herve QUELO,EHPAD,Centre Auvergne,03 86 41 11 33,30 ROUTE AILLANT NANTOU,89240,POURRAIN,-,3.403291,47.781932,0.699780909090909,0.5221032186732187,30 Route d'Aillant 89240 Pourrain,housenumber,89311_0015_00030,30,30 Route d'Aillant,Route d'Aillant,89240,Pourrain,"89, Yonne, Bourgogne-Franche-Comté",89311,,,,ok
CHATEAU DE PARDIAC EHPAD,3385,,Caroline VILLEMUR,EHPAD,Sud-Ouest,05 53 20 60 20,Lieu-dit Pomyers,47250,SAMAZAN,-,0.114248,44.436271,0.6046175757575757,0.5591630303030304,Pomyers 47250 Samazan,street,47285_ds7fqy,,Pomyers,Pomyers,47250,Samazan,"47, Lot-et-Garonne, Nouvelle-Aquitaine",47285,,,,ok
CHATEAU DE VERNANGE EHPAD +++,4406,DOMIDEP,Aurelien COURTOISIER,EHPAD,Centre-Est,04 72 26 16 16,Chateau de Vernange,01390,ST ANDRE DE CORCY,-,4.954415,45.930823,0.5477200308166409,0.5377740074211502,Impasse de la Vernangère 01390 Saint-André-de-Corcy,street,01333_1169,,Impasse de la Vernangère,Impasse de la Vernangère,01390,Saint-André-de-Corcy,"01, Ain, Auvergne-Rhône-Alpes",01333,,,,ok
CHATEAU POMEROL EHPAD,7036,,Caroline VILLEMUR,EHPAD,Sud-Ouest,05 57 77 50 00,21 avenue des Griffons,33530,BASSENS,X,-0.516457,44.89118,0.900820404040404,,21 Avenue des Griffons 33530 Bassens,housenumber,33032_0379_00021,21,21 Avenue des Griffons,Avenue des Griffons,33530,Bassens,"33, Gironde, Nouvelle-Aquitaine",33032,,,,ok
CHATEAU VACQUEY EHPAD DOMUSVI,6981,DOMUSVI,Caroline VILLEMUR,EHPAD,Sud-Ouest,05 56 72 91 45,56 avenue de Vacquey,33370,SALLEBOEUF,-,-0.396805,44.860331,0.9052463144963144,,56 Avenue de Vacquey 33370 Sallebœuf,housenumber,33496_0260_00056,56,56 Avenue de Vacquey,Avenue de Vacquey,33370,Sallebœuf,"33, Gironde, Nouvelle-Aquitaine",33496,,,,ok
CLAIRBOIS EHPAD,9144,MBV,Laurent DURIEUX,EHPAD,Val de Loire,05 45 66 34 34,LA BOISSIERE,16410,DIRAC,-,0.216778,45.594692,0.866611515151515,0.6479624242424242,La Boissière 16410 Dirac,street,16120_qo8hy4,,La Boissière,La Boissière,16410,Dirac,"16, Charente, Nouvelle-Aquitaine",16120,,,,ok
CLOS SAINT FRANCOIS EHPAD,9194,,Dorian SANCHEZ,EHPAD,Sud-Est,05 65 98 18 40,9 place de la Collégiale,12380,ST SERNIN SUR RANCE,-,2.602396,43.882355,0.8265403367003366,,9 Place de la Collègiale 12380 Saint-Sernin-sur-Rance,housenumber,12248_0033_00009,9,9 Place de la Collègiale,Place de la Collègiale,12380,Saint-Sernin-sur-Rance,"12, Aveyron, Occitanie",12248,,,,ok
COAT KERHUEL EHPAD,4011,,Aurore Auffret,EHPAD,Bretagne,02 98 66 62 98,IMPASSE DE LA LANDE,29500,ERGUE GABERIC,-,-4.019394,48.019444,0.9086326806526805,0.6819692490118576,Impasse de la Lande 29500 Ergué-Gabéric,street,29051_0460,,Impasse de la Lande,Impasse de la Lande,29500,Ergué-Gabéric,"29, Finistère, Bretagne",29051,,,,ok
COLISEE EHPAD SARMATIA,13965,COLISEE,Celine LUCION,EHPAD,Grand Nord-Est,03 26 73 21 26,24 Rue Bénard,51250,SERMAIZE LES BAINS,-,4.909028,48.786686,0.9076085645933013,,24 Rue Benard 51250 Sermaize-les-Bains,housenumber,51531_0060_00024,24,24 Rue Benard,Rue Benard,51250,Sermaize-les-Bains,"51, Marne, Grand Est",51531,,,,ok
COLISEE EHPADLES CLOS ST MARTIN D'ABLOIS EHPAD (EX-PROMEDIK),4503,COLISEE,Celine LUCION,EHPAD,Grand Nord-Est,03 26 57 24 24,2 AVENUE DE PARIS,51530,SAINT MARTIN D'ABLOIS,-,3.853291,49.005868,0.8733819191919191,,Avenue de Paris 51530 Saint-Martin-d'Ablois,street,51002_0200,,Avenue de Paris,Avenue de Paris,51530,Saint-Martin-d'Ablois,"51, Marne, Grand Est",51002,,,,ok
COLISEE RESIDENCE LE HAUT DE TICHEMONT,8322,COLISEE,Celine LUCION,EHPAD,Grand Nord-Est,03 82 47 11 47,3 ter avenue Sainte Barbe,54780,GIRAUMONT,-,5.91318,49.171822,0.8460148917748918,0.4146349802371541,3ter Avenue Sainte Barbe 54780 Giraumont,housenumber,54227_0330_00003_ter,3ter,3ter Avenue Sainte Barbe,Avenue Sainte Barbe,54780,Giraumont,"54, Meurthe-et-Moselle, Grand Est",54227,,,,ok
COLISEE RESIDENCE LES CHARMES,5271,COLISEE,Aurelien COURTOISIER,EHPAD,Centre-Est,03 85 81 77 77,BD COMBES - ZAC LES CHARMES,71600,PARAY LE MONIAL,-,4.10898,46.464829,0.6519167161410018,,ZAC des Charmes 71600 Paray-le-Monial,locality,71342_A140,,ZAC des Charmes,,71600,Paray-le-Monial,"71, Saône-et-Loire, Bourgogne-Franche-Comté",71342,,,,ok
COLONEL PICOT EHPAD,3136,,Dorian SANCHEZ,EHPAD,Sud-Est,04 94 42 51 80,A/A de Monsieur Mathieu Maréchal,83160,LA VALETTE DU VAR,-,6.002457,43.138621,0.5078602864259029,,Avenue du Marechal Alphonse Juin 83160 La Valette-du-Var,street,83144_0599,,Avenue du Marechal Alphonse Juin,Avenue du Marechal Alphonse Juin,83160,La Valette-du-Var,"83, Var, Provence-Alpes-Côte d'Azur",83144,,,,ok
COSTE BAILLS EHPAD,2401,,Dorian SANCHEZ,EHPAD,Sud-Est,04 68 37 34 34,"2, boulevard des Evadés de France",66200,ELNE,-,2.976772,42.595979,0.9180685200845666,,2 Boulevard des Evades de France 66200 Elne,housenumber,66065_0359_00002,2,2 Boulevard des Evades de France,Boulevard des Evades de France,66200,Elne,"66, Pyrénées-Orientales, Occitanie",66065,,,,ok
CROIX-ROUGE RUSSE EHPAD,2548,,Dorian SANCHEZ,EHPAD,Sud-Est,04 97 00 02 49,"34, avenue Caravadossi",06000,NICE,-,7.266683,43.712287,0.9221199999999999,0.5825466985645933,34 Avenue Caravadossi 06000 Nice,housenumber,06088_1130_00034,34,34 Avenue Caravadossi,Avenue Caravadossi,06000,Nice,"06, Alpes-Maritimes, Provence-Alpes-Côte d'Azur",06088,,,,ok
D'ALIGRE EHPAD,8098,,Laurent DURIEUX,EHPAD,Val de Loire,05 46 01 10 05,20 rue des Moulins,17230,MARANS,-,-0.994975,46.307124,0.9007680645161289,0.6526760606060605,20 Rue des Moulins 17230 Marans,housenumber,17218_1040_00020,20,20 Rue des Moulins,Rue des Moulins,17230,Marans,"17, Charente-Maritime, Nouvelle-Aquitaine",17218,,,,ok
D'ARGENSON - EHPAD RESIDENCE,8381,,Celine LUCION,EHPAD,Grand Nord-Est,03 89 48 13 03,"4, rue de la Synagogue",68540,BOLLWILLER,-,7.260042,47.859257,0.9069485645933013,,4 Rue de la Synagogue 68540 Bollwiller,housenumber,68043_0760_00004,4,4 Rue de la Synagogue,Rue de la Synagogue,68540,Bollwiller,"68, Haut-Rhin, Grand Est",68043,,,,ok
D'ARLANC EHPAD,3686,,Herve QUELO,EHPAD,Centre Auvergne,04 73 95 88 88,13 place des L'Ouche,63220,ARLANC,-,3.725305,45.419778,0.8148683422459891,0.7334496103896103,13 Place de l’Ouche 63220 Arlanc,housenumber,63010_0350_00013,13,13 Place de l’Ouche,Place de l’Ouche,63220,Arlanc,"63, Puy-de-Dôme, Auvergne-Rhône-Alpes",63010,,,,ok
DE BAILLOT EHPAD,1515,,Laurent DURIEUX,EHPAD,Val de Loire,05 65 37 06 66,Rue Edmond Michelet,46200,SOUILLAC,-,1.479271,44.891643,0.898604973262032,,Rue Edmond Michelet 46200 Souillac,street,46309_0121,,Rue Edmond Michelet,Rue Edmond Michelet,46200,Souillac,"46, Lot, Occitanie",46309,,,,ok
DE BOIS D'OLIVES EHPAD,8445,Fondation Père Favron,Export,EHPAD,Dom-Tom,0262 91 73 00,50 chemin Palma - Bois d’Olives,97410,SAINT PIERRE,-,55.456211,-21.303048,0.5781894214876032,,Chemin Marcelin Palma 97410 Saint-Pierre,street,97416_0770,,Chemin Marcelin Palma,Chemin Marcelin Palma,97410,Saint-Pierre,"974, La Réunion",97416,,,,ok
DE BRAS LONG EHPAD,8447,Fondation Père Favron,Export,EHPAD,Dom-Tom,0262 71 71 00,"120, route du Bras Long",97414,ENTRE DEUX,-,55.471392,-21.236075,0.7253311973392461,,120 Rue Bras Long 97414 Entre-Deux,housenumber,97403_0040_00120,120,120 Rue Bras Long,Rue Bras Long,97414,Entre-Deux,"974, La Réunion",97403,,,,ok
DE CLAIRVANS EHPAD,17624,COLISEE,Aurelien COURTOISIER,EHPAD,Centre-Est,03 84 37 70 88,10 RUE DE CLAIRVANS,39380,CHAMBLAY,-,5.692699,46.989892,0.8923940641711229,,10 Rue de Clairvans 39380 Chamblay,housenumber,39093_0004_00010,10,10 Rue de Clairvans,Rue de Clairvans,39380,Chamblay,"39, Jura, Bourgogne-Franche-Comté",39093,,,,ok
DE FRONTENAUD EHPAD,15216,,Aurelien COURTOISIER,EHPAD,Centre-Est,03 85 71 30 10,495 ROUTE DU CHATEAU DES CROZES,71580,FRONTENAUD,-,5.307203,46.540854,0.9034957575757575,0.5043116083916084,495 Route du Château des Crozes 71580 Frontenaud,housenumber,71209_0060_00495,495,495 Route du Château des Crozes,Route du Château des Crozes,71580,Frontenaud,"71, Saône-et-Loire, Bourgogne-Franche-Comté",71209,,,,ok
DE LA BELLE ETOILE EHPAD,16129,,Celine LUCION,EHPAD,Grand Nord-Est,02 35 55 10 03,33 RUE JACQUES PREVERT,76290,MONTIVILLIERS,-,0.176822,49.547541,0.9208754112554111,,33 Rue Jacques Prévert 76290 Montivilliers,housenumber,76447_0455_00033,33,33 Rue Jacques Prévert,Rue Jacques Prévert,76290,Montivilliers,"76, Seine-Maritime, Normandie",76447,,,,ok
DE LA CAVALERIE EHPAD,4210,COLISEE,Laurent DURIEUX,EHPAD,Val de Loire,05 53 73 49 00,37 rue Salvador Allende,24130,PRIGONRIEUX,-,0.403694,44.856295,0.9153495565410199,,37 Rue Salvador Allende 24130 Prigonrieux,housenumber,24340_0115_00037,37,37 Rue Salvador Allende,Rue Salvador Allende,24130,Prigonrieux,"24, Dordogne, Nouvelle-Aquitaine",24340,,,,ok
DE LA GRANDE LANDE EHPAD,5880,,Caroline VILLEMUR,EHPAD,Sud-Ouest,05 58 08 91 88,271 rue de la Gare,40410,PISSOS,-,-0.780886,44.305205,0.8903044281524926,0.6089251105651106,271 Rue de la Gare 40410 Pissos,housenumber,40227_0330_00271,271,271 Rue de la Gare,Rue de la Gare,40410,Pissos,"40, Landes, Nouvelle-Aquitaine",40227,,,,ok
DE LEMBEYE AASS Sud Aquitaine Ehpad,10357,,Caroline VILLEMUR,EHPAD,Sud-Ouest,05 59 32 07 05,Ehpad Lembeye,64350,LEMBEYE,X,-0.106193,43.450766,0.44501132867132864,0.4138931129476584,Lembeye,municipality,64331,,Lembeye,,64350,Lembeye,"64, Pyrénées-Atlantiques, Nouvelle-Aquitaine",64331,,,,ok
DE LURCY LEVIS EHPAD,4252,,Herve QUELO,EHPAD,Centre Auvergne,04 70 67 34 00,Rue du Paulat,03320,LURCY LEVIS,-,2.939417,46.722658,0.7891761983471074,0.6322933971291866,Rue de Paulat 03320 Lurcy-Lévis,street,03155_0471,,Rue de Paulat,Rue de Paulat,03320,Lurcy-Lévis,"03, Allier, Auvergne-Rhône-Alpes",03155,,,,ok
DE MAUPERTHUIS EHPAD,12547,,Aurore Auffret,EHPAD,Bretagne,02 40  75 49 92,20 Rue Etienne Lemerle,44400,REZE,-,-1.563435,47.187878,0.9121644903581267,,20 Rue Etienne Lemerle 44400 Rezé,housenumber,44143_1230_00020,20,20 Rue Etienne Lemerle,Rue Etienne Lemerle,44400,Rezé,"44, Loire-Atlantique, Pays de la Loire",44143,,,,ok
DE MONSEGUR EHPAD,9197,,Caroline VILLEMUR,EHPAD,Sud-Ouest,05 56 61 60 50,53 rue Saint Jean,33580,MONSEGUR,-,0.083193,44.651507,0.898651818181818,0.561700909090909,53 Rue Saint-jean 33580 Monségur,housenumber,33289_0160_00053,53,53 Rue Saint-jean,Rue Saint-jean,33580,Monségur,"33, Gironde, Nouvelle-Aquitaine",33289,,,,ok
DE RAVINE BLANCHE EHPAD,8448,Fondation Père Favron,Export,EHPAD,Dom-Tom,02 62 71 67 00,82 boulevard Hubert Delisle,97410,SAINT PIERRE,-,55.466092,-21.342852,0.9380143083003952,0.6986932282003709,82 Boulevard Hubert Delisle 97410 Saint-Pierre,housenumber,97416_0170_00082,82,82 Boulevard Hubert Delisle,Boulevard Hubert Delisle,97410,Saint-Pierre,"974, La Réunion",97416,,,,ok
DE RAYMOND EHPAD RESIDENCE,13935,Fondation Partage et Vie (ex Caisse d'Epargne),Caroline VILLEMUR,EHPAD,Sud-Ouest,05 53 47 02 98,"36, Cours Washington",47000,AGEN,-,0.619643,44.202256,0.9074384848484849,,36 Cours Washington 47000 Agen,housenumber,47001_3870_00036,36,36 Cours Washington,Cours Washington,47000,Agen,"47, Lot-et-Garonne, Nouvelle-Aquitaine",47001,,,,ok
DE SAINTE FLORINE EHPAD,3915,,Herve QUELO,EHPAD,Centre Auvergne,04 73 54 14 97,"3, rue Pasteur",43250,STE FLORINE,-,3.319721,45.406627,0.7761454545454546,,3 Rue Pasteur 43250 Sainte-Florine,housenumber,43185_0510_00003,3,3 Rue Pasteur,Rue Pasteur,43250,Sainte-Florine,"43, Haute-Loire, Auvergne-Rhône-Alpes",43185,,,,ok
DE VOLVIC EHPAD,4304,,Herve QUELO,EHPAD,Centre Auvergne,04 73 33 43 83,"6, rue Pont Chaput",63530,VOLVIC,-,3.039758,45.871077,0.7620807162534434,,Rue du Pont Chaput 63530 Volvic,street,63470_0340,,Rue du Pont Chaput,Rue du Pont Chaput,63530,Volvic,"63, Puy-de-Dôme, Auvergne-Rhône-Alpes",63470,,,,ok
DE YENNE EHPAD,7639,,Aurelien COURTOISIER,EHPAD,Centre-Est,04 79 36 93 36,127 Route de Chambuet,73170,YENNE,-,5.75805,45.698459,0.9024544903581266,0.5660977922077921,127 Route de Chambuet 73170 Yenne,housenumber,73330_0083_00127,127,127 Route de Chambuet,Route de Chambuet,73170,Yenne,"73, Savoie, Auvergne-Rhône-Alpes",73330,,,,ok
DES COURCELLES EHPAD,17188,DOMUSVI,Aurelien COURTOISIER,EHPAD,Centre-Est,03 84 80 08 00,9 AV JEAN FRANCOIS TOMASSIN,39700,ROCHEFORT SUR NENON,-,5.556027,47.124431,0.7594083359013867,,9 Rue Jean-François Thomassin 39700 Rochefort-sur-Nenon,housenumber,39462_0213_00009,9,9 Rue Jean-François Thomassin,Rue Jean-François Thomassin,39700,Rochefort-sur-Nenon,"39, Jura, Bourgogne-Franche-Comté",39462,,,,ok
DES REMPARTS EHPAD SEDNA,7295,SEDNA,Caroline VILLEMUR,EHPAD,Sud-Ouest,05 53 68 31 41,7 Rue André Mazeau,47000,AGEN,-,0.622196,44.207106,0.9011840752351096,,7 Rue André Mazeau 47000 Agen,housenumber,47001_0130_00007,7,7 Rue André Mazeau,Rue André Mazeau,47000,Agen,"47, Lot-et-Garonne, Nouvelle-Aquitaine",47001,,,,ok
DES VOSGES EHPAD,4629,,Celine LUCION,EHPAD,Grand Nord-Est,03 89 50 25 01,15 rue des Voges,68270,WITTENHEIM,-,7.335619,47.806639,0.8355835064935064,0.7356609090909091,15 Rue des Vosges 68270 Wittenheim,housenumber,68376_1330_00015,15,15 Rue des Vosges,Rue des Vosges,68270,Wittenheim,"68, Haut-Rhin, Grand Est",68376,,,,ok
DOMAINE DE COULOMME EHPAD,5736,,Caroline VILLEMUR,EHPAD,Sud-Ouest,05 59 38 79 79,Domaine de Coulomme,64390,SAUVETERRE DE BEARN,X,-0.928583,43.406732,0.7459638218923933,,Chemin de Coulomme 64390 Sauveterre-de-Béarn,street,64513_0470,,Chemin de Coulomme,Chemin de Coulomme,64390,Sauveterre-de-Béarn,"64, Pyrénées-Atlantiques, Nouvelle-Aquitaine",64513,,,,ok
DOMAINE DE L'OLIVIER,5816,SGA,Dorian SANCHEZ,EHPAD,Sud-Est,04 42 12 57 80,268 route de Mimet,13120,GARDANNE,-,5.474988,43.449458,0.6648760606060605,0.5662363636363635,268 Avenue de Mimet 13120 Gardanne,housenumber,13041_0784_00268,268,268 Avenue de Mimet,Avenue de Mimet,13120,Gardanne,"13, Bouches-du-Rhône, Provence-Alpes-Côte d'Azur",13041,,,,ok
DOMAINE DES TUILERIES EHPAD,4450,,Celine LUCION,EHPAD,Grand Nord-Est,03 20 22 44 38,7 PLACE DES ANCIENS COMBATTANTS,59840,PERENCHIES,-,2.979128,50.665317,0.9182393939393938,,7 Place des Anciens Combattants 59840 Pérenchies,housenumber,59457_0326_00007,7,7 Place des Anciens Combattants,Place des Anciens Combattants,59840,Pérenchies,"59, Nord, Hauts-de-France",59457,,,,ok
DOMAINE DU CHATEAU EHPAD,15083,,Aurelien COURTOISIER,EHPAD,Centre-Est,03 85 84 30 00,49 RUE DE BOURGOGNE,71600,PARAY LE MONIAL,-,4.105139,46.461795,0.9187668292682925,0.6209388932806325,49 Rue de Bourgogne 71600 Paray-le-Monial,housenumber,71342_0105_00049,49,49 Rue de Bourgogne,Rue de Bourgogne,71600,Paray-le-Monial,"71, Saône-et-Loire, Bourgogne-Franche-Comté",71342,,,,ok
DOMITYS,16803,,Dorian SANCHEZ,EHPAD,Sud-Est,04 20 58 00 00,LE JARDIN DES PALMIERS,20000,AJACCIO,-,8.728715,41.927619,0.555254081237911,,Les Jardins de l’Empereur 20000 Ajaccio,street,2A004_B111,,Les Jardins de l’Empereur,Les Jardins de l’Empereur,20000,Ajaccio,"2A, Corse-du-Sud, Corse",2A004,,,,ok
DU BIGNON RESIDENCE,13095,,Aurore Auffret,EHPAD,Bretagne,02 99 69 49 43,Impasse Francois Phily,35720,PLEUGUENEUC,-,-1.905337,48.395963,0.8964909090909089,,Impasse François Phily 35720 Pleugueneuc,street,35226_0032,,Impasse François Phily,Impasse François Phily,35720,Pleugueneuc,"35, Ille-et-Vilaine, Bretagne",35226,,,,ok
DU BOIS JOLI - COLISEE - BONNETAGE,10029,COLISEE,Aurelien COURTOISIER,EHPAD,Centre-Est,03 81 68 57 00,"1, chemin de la Cornaye",25210,BONNETAGE,-,6.725509,47.183485,0.8926612918660286,,1 Chemin de la Cornaye 25210 Bonnétage,housenumber,25074_0092_00001,1,1 Chemin de la Cornaye,Chemin de la Cornaye,25210,Bonnétage,"25, Doubs, Bourgogne-Franche-Comté",25074,,,,ok
DU CHATEAU DU BOIS D'HURE EHPAD,7984,,Laurent DURIEUX,EHPAD,Val de Loire,05 46 67 66 38,Rue du Bois d'Huré,17140,LAGORD,-,-1.143719,46.189394,0.9003144281524925,0.7520677922077922,Rue du Bois d'Huré 17140 Lagord,street,17200_0026,,Rue du Bois d'Huré,Rue du Bois d'Huré,17140,Lagord,"17, Charente-Maritime, Nouvelle-Aquitaine",17200,,,,ok
DU HAUT CHABLAIS EHPAD,4795,,Aurelien COURTOISIER,EHPAD,Centre-Est,04 50 74 41 45,"32, Impasse Aléxis Léaud",74430,ST JEAN D'AULPS,-,6.658919,46.230176,0.8189016883116882,,32 Impasse Alexis Léaud 74430 Saint-Jean-d'Aulps,housenumber,74238_0080_00032,32,32 Impasse Alexis Léaud,Impasse Alexis Léaud,74430,Saint-Jean-d'Aulps,"74, Haute-Savoie, Auvergne-Rhône-Alpes",74238,,,,ok
DU HAUT CHABLAIS EHPAD,6581,,Aurelien COURTOISIER,EHPAD,Centre-Est,04 50 73 39 87,Lieu-dit Les Auxdevex,74360,VACHERESSE,-,6.677936,46.325856,0.5188437549407114,0.4522959925788497,Route de leschaux 74360 Vacheresse,street,74286_0750,,Route de leschaux,Route de leschaux,74360,Vacheresse,"74, Haute-Savoie, Auvergne-Rhône-Alpes",74286,,,,ok
DU MANOIRE EHPAD,2927,,Laurent DURIEUX,EHPAD,Val de Loire,05 53 07 55 42,Lieu dit le Bourg,24330,ST PIERRE DE CHIGNAC,-,0.864323,45.133462,0.5039987878787878,0.5025162998405104,Route de Lardimalie 24330 Saint-Pierre-de-Chignac,street,24484_0590,,Route de Lardimalie,Route de Lardimalie,24330,Saint-Pierre-de-Chignac,"24, Dordogne, Nouvelle-Aquitaine",24484,,,,ok
DU MARSAN EHPAD,6391,,Caroline VILLEMUR,EHPAD,Sud-Ouest,05 58 05 68 80,54 rue Vice Amiral Georges Gayral,40000,MONT DE MARSAN,-,-0.508668,43.888555,0.7573973354231974,,54 Rue du Vice Amiral G Gayral 40000 Mont-de-Marsan,housenumber,40192_2326_00054,54,54 Rue du Vice Amiral G Gayral,Rue du Vice Amiral G Gayral,40000,Mont-de-Marsan,"40, Landes, Nouvelle-Aquitaine",40192,,,,ok
DU MOULIN DES PRES EHPAD,3345,,Celine LUCION,EHPAD,Grand Nord-Est,02 35 80 61 61,7 Rue Saintonge,76240,LE MESNIL ESNARD,-,1.14887,49.40844,0.8463934368070953,,7 Rue de Saintonge 76240 Le Mesnil-Esnard,housenumber,76429_0291_00007,7,7 Rue de Saintonge,Rue de Saintonge,76240,Le Mesnil-Esnard,"76, Seine-Maritime, Normandie",76429,,,,ok
DU PARC RESIDENCE,16066,,Aurore Auffret,EHPAD,Bretagne,02 96 27 21 50,a/a de Mme SAVARY,22650,PLOUBALAY,-,-2.133737,48.581502,0.47501656565656564,0.4668938277511961,rue de Floubalay 22650 Beaussais-sur-Mer,street,22209_0066,,rue de Floubalay,rue de Floubalay,22650,Beaussais-sur-Mer,"22, Côtes-d'Armor, Bretagne",22209,22209,Ploubalay,,ok
DU PARC RESIDENCE,16426,,Niels COLLEU,EHPAD,Normandie,02 33 56 63 10,3 rue Carbonnel,50750,CANISY,-,-1.174513,49.076571,0.805399706744868,,3 Rue de Carbonnel 50750 Canisy,housenumber,50095_0014_00003,3,3 Rue de Carbonnel,Rue de Carbonnel,50750,Canisy,"50, Manche, Normandie",50095,50095,Canisy,,ok
DU PAYS D'ALBRET EHPAD,5878,CCAS,Caroline VILLEMUR,EHPAD,Sud-Ouest,05 58 51 01 80,83 route de Luxey,40420,LABRIT,-,-0.544772,44.105487,0.8858212121212121,,83 Route de Luxey 40420 Labrit,housenumber,40135_0018_00083,83,83 Route de Luxey,Route de Luxey,40420,Labrit,"40, Landes, Nouvelle-Aquitaine",40135,,,,ok
DU ROMARIN FOYER EHPAD,1248,,Dorian SANCHEZ,EHPAD,Sud-Est,04 67 02 34 50,"246, Rue du Romarin",34830,CLAPIERS,-,3.882474,43.658213,0.9026044903581267,0.5622799999999999,246 Rue du Romarin 34830 Clapiers,housenumber,34077_0056_00246,246,246 Rue du Romarin,Rue du Romarin,34830,Clapiers,"34, Hérault, Occitanie",34077,,,,ok
DU VAL ELORN RESIDENCE,15125,CCAS,Aurore Auffret,EHPAD,Bretagne,02 98 68 82 40,60 Rue de Brest,29450,SIZUN,-,-4.085193,48.409389,0.8890035690235689,,60 Rue de Brest 29450 Sizun,housenumber,29277_0100_00060,60,60 Rue de Brest,Rue de Brest,29450,Sizun,"29, Finistère, Bretagne",29277,,,,ok
E.H.P.A.D. NOEL SARROLA (L'OLIVIER BLEU),8789,,Dorian SANCHEZ,EHPAD,Sud-Est,04 95 27 98 00,CARCOPINO,20167,SARROLA CARCOPINO,-,8.8386,42.023119,0.893077217630854,0.6842679220779221,Carcopino 20167 Sarrola-Carcopino,street,2a271_9o80b3,,Carcopino,Carcopino,20167,Sarrola-Carcopino,"2A, Corse-du-Sud, Corse",2A271,,,,ok
EAM - EANM CROIX MARINE,5091,,Herve QUELO,EHPAD,Centre Auvergne,04 73 84 03 91,19 avenue du Puy Marmant,63670,LE CENDRE,-,3.191346,45.715184,0.9140445454545454,,19 avenue du Puy Marmant 63670 Le Cendre,housenumber,63069_0274_00019,19,19 avenue du Puy Marmant,avenue du Puy Marmant,63670,Le Cendre,"63, Puy-de-Dôme, Auvergne-Rhône-Alpes",63069,,,,ok
ECHASSIERES EHPAD,3768,,Herve QUELO,EHPAD,Centre Auvergne,04 70 90 66 66,Le Bourg,03330,ECHASSIERES,-,2.935825,46.193576,0.6037281818181818,0.5218868531468531,Échassières,municipality,03108,,Échassières,,03330,Échassières,"03, Allier, Auvergne-Rhône-Alpes",03108,,,,ok
ECUREUIL EHPAD,5862,,Dorian SANCHEZ,EHPAD,Sud-Est,04 67 88 43 00,25 av de la République,34700,LODEVE,-,3.319441,43.731506,0.7633725307125306,0.7534416083916083,Rue de la Republique 34700 Lodève,street,34142_0970,,Rue de la Republique,Rue de la Republique,34700,Lodève,"34, Hérault, Occitanie",34142,,,,ok
EFFIAT EHPAD,3113,,Herve QUELO,EHPAD,Centre Auvergne,04 73 63 49 76,"45, rue Antoine Coiffier",63260,EFFIAT,-,3.261833,46.036704,0.9034185858585858,,45 Rue Antoine Coiffier 63260 Effiat,housenumber,63143_0005_00045,45,45 Rue Antoine Coiffier,Rue Antoine Coiffier,63260,Effiat,"63, Puy-de-Dôme, Auvergne-Rhône-Alpes",63143,,,,ok
EHPA L'ORATOIRE,8868,,Dorian SANCHEZ,EHPAD,Sud-Est,05 65 47 05 31,Le Bourg,12800,SAUVETERRE DE ROUERGUE,-,2.314574,44.247484,0.7175918181818182,0.7066918181818181,le Bès 12800 Sauveterre-de-Rouergue,street,12262_mwbg1a,,le Bès,le Bès,12800,Sauveterre-de-Rouergue,"12, Aveyron, Occitanie",12262,,,,ok
EHPAD,0778,,Dorian SANCHEZ,EHPAD,Sud-Est,05 65 58 40 00,Route de Millau,12230,NANT,-,3.299544,44.024484,0.8761226573426573,,Route de Millau 12230 Nant,street,12168_0080,,Route de Millau,Route de Millau,12230,Nant,"12, Aveyron, Occitanie",12168,,,,ok
EHPAD ABRAPA NEUDORF - STRASBOURG,9668,,Celine LUCION,EHPAD,Grand Nord-Est,03 88 44 02 02,"6, rue Sainte Agnès",67100,STRASBOURG,X,7.761225,48.56528,0.9193346753246753,,6 Rue Sainte-Agnès 67100 Strasbourg,housenumber,67482_6070_00006,6,6 Rue Sainte-Agnès,Rue Sainte-Agnès,67100,Strasbourg,"67, Bas-Rhin, Grand Est",67482,,,,ok
EHPAD AMITIE ET PÄRTAGE,17926,,IDF,EHPAD,Ile de France,01 53 63 63 00,83 RUE DE SEVRES,75006,PARIS 06,-,2.327584,48.843789,0.4929248051948052,0.38035010101010097,Rue de Cicé 75006 Paris,street,75106_2039,,Rue de Cicé,Rue de Cicé,75006,Paris,"75, Paris, Île-de-France",75106,,,Paris 6e Arrondissement,ok
EHPAD ANDRE MAGINOT,9542,,Herve QUELO,EHPAD,Centre Auvergne,02 48 52 95 60,Route de bourges,18330,NEUVY SUR BARANGEON,-,2.25989,47.312477,0.9103054112554112,,Route de Bourges 18330 Neuvy-sur-Barangeon,street,18165_0007,,Route de Bourges,Route de Bourges,18330,Neuvy-sur-Barangeon,"18, Cher, Centre-Val de Loire",18165,,,,ok
EHPAD ASIMAT LA GRAND-MAISON,16493,,Celine LUCION,EHPAD,Grand Nord-Est,03 25 49 00 88,2 RUE BENOIT MALON,10300,STE SAVINE,-,4.060859,48.294051,0.8012934731934731,,2 Rue Benoit Malon 10300 Sainte-Savine,housenumber,10362_0060_00002,2,2 Rue Benoit Malon,Rue Benoit Malon,10300,Sainte-Savine,"10, Aube, Grand Est",10362,,,,ok
EHPAD AVININ JOHANNEL,9446,,Herve QUELO,EHPAD,Centre Auvergne,04 71 23 03 25,40 avenue du Général de Gaulle,15500,MASSIAC,-,3.198555,45.255339,0.9178331404958678,,40 Avenue du Général de Gaulle 15500 Massiac,housenumber,15119_0109_00040,40,40 Avenue du Général de Gaulle,Avenue du Général de Gaulle,15500,Massiac,"15, Cantal, Auvergne-Rhône-Alpes",15119,,,,ok
EHPAD CROIX ROUGE LA BELLE IDEE,13893,LA CROIX ROUGE FRANCAISE,Herve QUELO,EHPAD,Centre Auvergne,03 86 91 58 00,7 rue Pierre Larousse,89110,AILLANT SUR THOLON,-,3.347211,47.872606,0.6391129313543598,,7 Rue Pierre Larousse 89110 Montholon,housenumber,89003_0490_00007,7,7 Rue Pierre Larousse,Rue Pierre Larousse,89110,Montholon,"89, Yonne, Bourgogne-Franche-Comté",89003,89003,Aillant-sur-Tholon,,ok
EHPAD DE CHANTELLE,17742,,Herve QUELO,EHPAD,Centre Auvergne,04 70 90 63 20,18 Place de la Chaume,03140,CHANTELLE,-,3.159546,46.240867,0.8977990417690417,0.47340441558441554,18 Place de la Chaume 03140 Chantelle,housenumber,03053_0049_00018,18,18 Place de la Chaume,Place de la Chaume,03140,Chantelle,"03, Allier, Auvergne-Rhône-Alpes",03053,,,,ok
EHPAD DE LA FORET,10271,,Herve QUELO,EHPAD,Centre Auvergne,04 71 47 88 00,"2, rue du Puy de Peyre Arse",15130,YTRAC,-,2.360842,44.910428,0.9076831100478467,,2 Rue du Puy de Peyre-arse 15130 Ytrac,housenumber,15267_0082_00002,2,2 Rue du Puy de Peyre-arse,Rue du Puy de Peyre-arse,15130,Ytrac,"15, Cantal, Auvergne-Rhône-Alpes",15267,,,,ok
EHPAD DE LA NAUXE,15670,,Celine LUCION,EHPAD,Grand Nord-Est,03 25 21 33 75,1 RUE GUILLEMOT,10370,VILLENAUXE LA GRANDE,-,3.552654,48.589134,0.9070281385281385,,1 Rue Guillemot 10370 Villenauxe-la-Grande,housenumber,10420_0345_00001,1,1 Rue Guillemot,Rue Guillemot,10370,Villenauxe-la-Grande,"10, Aube, Grand Est",10420,,,,ok
EHPAD DE LIMAGNE,14202,,Herve QUELO,EHPAD,Centre Auvergne,04 71 48 29 36,83 avenue Jean Baptiste Veyre,15000,AURILLAC,-,2.45624,44.938001,0.9297640495867768,,83 Avenue Jean-baptiste Veyre 15000 Aurillac,housenumber,15014_1250_00083,83,83 Avenue Jean-baptiste Veyre,Avenue Jean-baptiste Veyre,15000,Aurillac,"15, Cantal, Auvergne-Rhône-Alpes",15014,,,,ok
EHPAD DE PORH KER,9640,,Aurore Auffret,EHPAD,Bretagne,02 97 59 00 59,4 rue hent Guir,56330,PLUVIGNER,-,-3.011608,47.773094,0.7840960117302053,,4 Hent Guir 56330 Pluvigner,housenumber,56177_g019_00004,4,4 Hent Guir,Hent Guir,56330,Pluvigner,"56, Morbihan, Bretagne",56177,,,,ok
EHPAD DE SAINT SATURNIN (EX-PROMEDIK),11018,,Laurent DURIEUX,EHPAD,Val de Loire,02 43 61 53 80,Rue de Corbeni,72650,ST SATURNIN,-,0.164676,48.063122,0.778000505050505,,Rue de Corbeni 72650 Saint-Saturnin,street,72320_0105,,Rue de Corbeni,Rue de Corbeni,72650,Saint-Saturnin,"72, Sarthe, Pays de la Loire",72320,,Saint-Saturnin,,ok
EHPAD DU CLOS PRE LES BRUYERES SAINT MAX,10544,,Celine LUCION,EHPAD,Grand Nord-Est,03 83 29 30 58,14 Rue du Clos Pré,54130,ST MAX,-,6.209404,48.702506,0.7775745454545455,0.50193,14 Rue du Clos Pré 54130 Saint-Max,housenumber,54482_0130_00014,14,14 Rue du Clos Pré,Rue du Clos Pré,54130,Saint-Max,"54, Meurthe-et-Moselle, Grand Est",54482,,,,ok
EHPAD DU DOCTEUR RAYNAUD,15529,,Herve QUELO,EHPAD,Centre Auvergne,04 73 63 81 64,8 rue du Moulin,63720,ENNEZAT,-,3.221779,45.894427,0.8901268025078368,0.588910909090909,8 Rue du Moulin 63720 Ennezat,housenumber,63148_0110_00008,8,8 Rue du Moulin,Rue du Moulin,63720,Ennezat,"63, Puy-de-Dôme, Auvergne-Rhône-Alpes",63148,,,,ok
EHPAD DU HAUT LEON - RESIDENCE KERSAUDY,15903,,Aurore Auffret,EHPAD,Bretagne,02 98 69 12 35,RESIDENCE KERSAUDY,29250,ST POL DE LEON,-,-3.996218,48.685076,0.5663797598627787,0.5649604099821747,Residence de Kelou Mad 29250 Saint-Pol-de-Léon,street,29259_dh3vi6,,Residence de Kelou Mad,Residence de Kelou Mad,29250,Saint-Pol-de-Léon,"29, Finistère, Bretagne",29259,,,,ok
EHPAD DU LAC,18641,,Herve QUELO,EHPAD,Centre Auvergne,04 73 86 81 59,31 rue des fades,63770,LES ANCIZES COMPS,-,2.80714,45.927217,0.8389481818181818,0.7245190909090908,Rue des Fades 63770 Les Ancizes-Comps,street,63004_0042,,Rue des Fades,Rue des Fades,63770,Les Ancizes-Comps,"63, Puy-de-Dôme, Auvergne-Rhône-Alpes",63004,,,,ok
EHPAD DU LAVEZON,16150,COLISEE,Herve QUELO,EHPAD,Centre Auvergne,04 75 52 81 00,2 CHEMIN DE VALPEYROUSE,07220,VIVIERS,-,4.679126,44.482227,0.6594489356984479,,2 Rue de Valpeyrouse 07220 Viviers,housenumber,07346_0262_00002,2,2 Rue de Valpeyrouse,Rue de Valpeyrouse,07220,Viviers,"07, Ardèche, Auvergne-Rhône-Alpes",07346,,,,ok
EHPAD FONDATION DUCHATEL,16445,,Celine LUCION,EHPAD,Grand Nord-Est,03 26 49 40 13,3 RUE WALBAUM,51360,VERZENAY,-,4.145776,49.15924,0.878714935064935,,3 Rue Walbaum 51360 Verzenay,housenumber,51613_0182_00003,3,3 Rue Walbaum,Rue Walbaum,51360,Verzenay,"51, Marne, Grand Est",51613,,,,ok
Ehpad Foréa Saint Esprit,17545,,Export,EHPAD,Dom-Tom,+596 596 60 12 95,"7 D5, Saint-Esprit",97270,ST ESPRIT,-,-60.923971,14.565905,0.5200154545454545,0.48900497835497825,Saint-Esprit,municipality,97223,,Saint-Esprit,,97270,Saint-Esprit,"972, Martinique",97223,,,,ok
EHPAD GASTON RIMAREIX,14213,,Herve QUELO,EHPAD,Centre Auvergne,05 55 67 07 31,Rue ds Aînés,23700,MAINSAT,-,2.3871,46.050728,0.773465974025974,0.6213675366568915,Rue des Aînés 23700 Mainsat,street,23116_0021,,Rue des Aînés,Rue des Aînés,23700,Mainsat,"23, Creuse, Nouvelle-Aquitaine",23116,,,,ok
EHPAD GEORGES DAUDU,12546,,Laurent DURIEUX,EHPAD,Val de Loire,02 54 98 16 16,CHEMIN DES VARENNES,41320,CHATRES SUR CHER,-,1.904971,47.268983,0.9047854112554111,0.6625501581027667,Chemin des Varennes 41320 Châtres-sur-Cher,street,41044_0088,,Chemin des Varennes,Chemin des Varennes,41320,Châtres-sur-Cher,"41, Loir-et-Cher, Centre-Val de Loire",41044,,,,ok
EHPAD KERAVALLO,15943,MUTUALITE RETRAITE,Aurore Auffret,EHPAD,Bretagne,02 96 35 93 64,3 Rue Yves Deriennic,22140,CAVAN,-,-3.344413,48.671617,0.8657462809917355,0.6514881818181818,3 Rue Yves Derriennic 22140 Cavan,housenumber,22034_0160_00003,3,3 Rue Yves Derriennic,Rue Yves Derriennic,22140,Cavan,"22, Côtes-d'Armor, Bretagne",22034,,,,ok
EHPAD KORIAN LA VILLA DU PRINTEMPS,14380,KORIAN,Herve QUELO,EHPAD,Centre Auvergne,02 48 50 91 00,99 rue Charlet,18000,BOURGES,-,2.411103,47.084253,0.8161632467532467,0.622432780748663,Rue Charlet 18000 Bourges,street,18033_1160,,Rue Charlet,Rue Charlet,18000,Bourges,"18, Cher, Centre-Val de Loire",18033,,,,ok
EHPAD L'OMBELLE,16634,,Herve QUELO,EHPAD,Centre Auvergne,04 73 68 60 79,RUE BEAUDET LAFARGE,63350,MARINGUES,-,3.331315,45.920662,0.9037346753246753,0.7636734498834498,Rue Beaudet Lafarge 63350 Maringues,street,63210_0090,,Rue Beaudet Lafarge,Rue Beaudet Lafarge,63350,Maringues,"63, Puy-de-Dôme, Auvergne-Rhône-Alpes",63210,,,,ok
EHPAD LA MAISON DES CHAMPS FLEURIS,15964,,Herve QUELO,EHPAD,Centre Auvergne,04 73 36 06 06,21 Boulevard Jean-Baptiste Dumas,63000,CLERMONT FERRAND,-,3.087054,45.787084,0.8799125837320574,0.5802514285714285,21 boulevard Jean-Baptiste Dumas 63100 Clermont-Ferrand,housenumber,63113_2405_00021,21,21 boulevard Jean-Baptiste Dumas,boulevard Jean-Baptiste Dumas,63100,Clermont-Ferrand,"63, Puy-de-Dôme, Auvergne-Rhône-Alpes",63113,,,,ok
EHPAD LA MAISON SAINT LOUIS,17074,,IDF,EHPAD,Ile de France,01 39 07 25 25,24 BIS RUE MARECHAL JOFFRE,78000,VERSAILLES,-,2.119922,48.794907,0.8177729400386846,,24bis Rue du Maréchal Joffre 78000 Versailles,housenumber,78646_1820_00024_bis,24bis,24bis Rue du Maréchal Joffre,Rue du Maréchal Joffre,78000,Versailles,"78, Yvelines, Île-de-France",78646,,,,ok
EHPAD LA TOUR DE VIGENNA,6347,MBV,Laurent DURIEUX,EHPAD,Val de Loire,05 49 23 66 00,2 rue du clos,86100,SENILLE,-,0.616659,46.778242,0.5488913953488372,0.49157818181818175,2 Rue des Clos 86100 Senillé-Saint-Sauveur,housenumber,86245_0195_00002,2,2 Rue des Clos,Rue des Clos,86100,Senillé-Saint-Sauveur,"86, Vienne, Nouvelle-Aquitaine",86245,86259,Senillé,,ok
EHPAD LA VIE LA,16595,,Herve QUELO,EHPAD,Centre Auvergne,04 70 48 15 00,5 RUE DES NOYERS,03290,DOMPIERRE SUR BESBRE,-,3.67895,46.520262,0.8768419191919191,,5 Rue des 5 Noyers 03290 Dompierre-sur-Besbre,housenumber,03102_0089_00005,5,5 Rue des 5 Noyers,Rue des 5 Noyers,03290,Dompierre-sur-Besbre,"03, Allier, Auvergne-Rhône-Alpes",03102,,,,ok
EHPAD LA VIGIERE,9465,,Herve QUELO,EHPAD,Centre Auvergne,04 71 60 24 24,rue Vigiere,15100,ST FLOUR,-,3.103762,45.032999,0.6296962626262625,,Rue de la Vigiere 15100 Saint-Flour,street,15187_0880,,Rue de la Vigiere,Rue de la Vigiere,15100,Saint-Flour,"15, Cantal, Auvergne-Rhône-Alpes",15187,,,,ok
EHPAD LE BOIS JOLI,15741,,Herve QUELO,EHPAD,Centre Auvergne,05 55 67 73 00,8 rue du Docteur Mazeron,23700,AUZANCES,-,2.498783,46.029177,0.9015308624708624,,8 Rue du Docteur Mazeron 23700 Auzances,housenumber,23013_0118_00008,8,8 Rue du Docteur Mazeron,Rue du Docteur Mazeron,23700,Auzances,"23, Creuse, Nouvelle-Aquitaine",23013,,,,ok
EHPAD LE BREMIEN NOTRE DAME,14920,,IDF,EHPAD,Ile de France,02 37 62 81 68,2 Rue de l'orée du bois,27770,ILLIERS L'EVEQUE,-,1.286609,48.815368,0.9119579446640316,,2 Rue de l’Oree du Bois 27770 Illiers-l'Évêque,housenumber,27350_0040_00002,2,2 Rue de l’Oree du Bois,Rue de l’Oree du Bois,27770,Illiers-l'Évêque,"27, Eure, Normandie",27350,,,,ok
EHPAD LE CLOS SAINT-MARTIN,8212,,Aurore Auffret,EHPAD,Bretagne,02 99 84 10 10,17 Rue des tanneurs,35043,RENNES,-,-1.67556,48.120717,0.7970969208211142,0.5477383116883117,17 Rue des Tanneurs 35700 Rennes,housenumber,35238_9160_00017,17,17 Rue des Tanneurs,Rue des Tanneurs,35700,Rennes,"35, Ille-et-Vilaine, Bretagne",35238,,,,ok
EHPAD LE HOME DU VERGER,13071,KORIAN,Laurent DURIEUX,EHPAD,Val de Loire,02 51 54 89 57,Rue Georges Thébaud,85220,APREMONT,-,-1.737321,46.748495,0.8229201010101009,,Rue georges thebault 85220 Apremont,street,85006_0460,,Rue georges thebault,Rue georges thebault,85220,Apremont,"85, Vendée, Pays de la Loire",85006,,,,ok
EHPAD LE MONASTERE,16412,,Herve QUELO,EHPAD,Centre Auvergne,05 87 65 60 01,15 RUE DU PERE DENIS,23160,AZERABLES,-,1.478402,46.351909,0.8953058585858584,,15 Rue du Père Denis 23160 Azerables,housenumber,23015_0006_00015,15,15 Rue du Père Denis,Rue du Père Denis,23160,Azerables,"23, Creuse, Nouvelle-Aquitaine",23015,,,,ok
EHPAD LE PRE DE CHAMP LONG,14528,,Herve QUELO,EHPAD,Centre Auvergne,04 75 93 40 09,222 Chemin Champ Long,07200,VESSEAUX,-,4.445208,44.650957,0.7682381818181818,0.5978328159645232,222 Chemin de Champlong 07200 Vesseaux,housenumber,07339_nyvato_00222,222,222 Chemin de Champlong,Chemin de Champlong,07200,Vesseaux,"07, Ardèche, Auvergne-Rhône-Alpes",07339,,,,ok
EHPAD LE SANDRON,14714,,Herve QUELO,EHPAD,Centre Auvergne,04 75 37 60 25,1 Chemin du Sandron,07200,UCEL,-,4.386869,44.645452,0.5383259808612441,,1 Impasse du Sandron 07200 Ucel,housenumber,07325_0124_00001,1,1 Impasse du Sandron,Impasse du Sandron,07200,Ucel,"07, Ardèche, Auvergne-Rhône-Alpes",07325,,,,ok
EHPAD LE VAL FLEURI,12879,BRIDGE,Celine LUCION,EHPAD,Grand Nord-Est,02 32 80 92 80,6 rue du Moulin Traversin,76890,VAL DE SAANE,-,0.965718,49.704722,0.8669153719008263,0.614534895104895,Rue Moulin du Traversin 76890 Val-de-Saâne,street,76018_0016,,Rue Moulin du Traversin,Rue Moulin du Traversin,76890,Val-de-Saâne,"76, Seine-Maritime, Normandie",76018,,,,ok
EHPAD LES BOUQUETS,13796,,Herve QUELO,EHPAD,Centre Auvergne,05 55 67 61 11,"7, rue des Bouquets",23190,BELLEGARDE EN MARCHE,-,2.298814,45.978424,0.9009141414141414,,7 Rue des Bouquets 23190 Bellegarde-en-Marche,housenumber,23020_0017_00007,7,7 Rue des Bouquets,Rue des Bouquets,23190,Bellegarde-en-Marche,"23, Creuse, Nouvelle-Aquitaine",23020,,,,ok
EHPAD LES BUISSONS,4454,,Celine LUCION,EHPAD,Grand Nord-Est,03 29 30 10 45,95 Xertipole les Buissons,88220,XERTIGNY,-,6.405582,48.04903,0.83246,,Xertipole les Buissons 88220 Xertigny,street,88530_l4nxk5,,Xertipole les Buissons,Xertipole les Buissons,88220,Xertigny,"88, Vosges, Grand Est",88530,,,,ok
EHPAD LES CHAMPS BLANCS,17292,,Herve QUELO,EHPAD,Centre Auvergne,03 86 66 38 16,25 rue de la Couée,89140,SERGINES,-,3.26476,48.337909,0.8926653994490358,,25 Rue de la Couée 89140 Sergines,housenumber,89391_0049_00025,25,25 Rue de la Couée,Rue de la Couée,89140,Sergines,"89, Yonne, Bourgogne-Franche-Comté",89391,,,,ok
EHPAD LES CYGNES,16176,,Celine LUCION,EHPAD,Grand Nord-Est,03 20 65 39 00,9 RUE JEAN DEPRAT,59115,LEERS,-,3.246895,50.67722,0.8956640752351096,,9 Rue Jean Deprat 59115 Leers,housenumber,59339_0079_00009,9,9 Rue Jean Deprat,Rue Jean Deprat,59115,Leers,"59, Nord, Hauts-de-France",59339,,,,ok
EHPAD LES FIORETTI,14419,,Herve QUELO,EHPAD,Centre Auvergne,02 48 20 13 51,"8, rue Bethune Garost",18000,BOURGES,-,2.402023,47.081306,0.7432743243243244,,Rue Béthune-Charost 18000 Bourges,street,18033_0560,,Rue Béthune-Charost,Rue Béthune-Charost,18000,Bourges,"18, Cher, Centre-Val de Loire",18033,,,,ok
EHPAD LES HAUTS VENTS,17076,,Niels COLLEU,EHPAD,Normandie,02 33 98 45 70,31 RUE DU DOCTEUR MAUBERT,61100,FLERS,-,-0.575003,48.741386,0.9149863144963144,,31 Rue du Docteur Maubert 61100 Flers,housenumber,61169_0490_00031,31,31 Rue du Docteur Maubert,Rue du Docteur Maubert,61100,Flers,"61, Orne, Normandie",61169,,,,ok
EHPAD LES JARDINS D'HENRIVILLE,15795,,Celine LUCION,EHPAD,Grand Nord-Est,03 60 24 88 00,132 rue Camille Desmoulins,80000,AMIENS,-,2.301889,49.881546,0.9331126806526806,,132 Rue Camille Desmoulins 80000 Amiens,housenumber,80021_1350_00132,132,132 Rue Camille Desmoulins,Rue Camille Desmoulins,80000,Amiens,"80, Somme, Hauts-de-France",80021,,,,ok
EHPAD LES MARRONNIERS,14356,,Herve QUELO,EHPAD,Centre Auvergne,02 48 66 61 51,CCAS Dun sur Auron,18130,DUN SUR AURON,-,2.550269,46.917004,0.4279010743801652,0.4274959536541889,La Doué 18130 Dun-sur-Auron,street,18087_unv9i8,,La Doué,La Doué,18130,Dun-sur-Auron,"18, Cher, Centre-Val de Loire",18087,,,,ok
EHPAD LES MELEZES,15467,,Celine LUCION,EHPAD,Grand Nord-Est,03 88 44 92 00,22 RUE DU SCHURMFELD,67000,STRASBOURG,-,7.761584,48.575713,0.623830997782705,0.6016580487804878,22 Rue du Jura 67000 Strasbourg,housenumber,67482_3595_00022,22,22 Rue du Jura,Rue du Jura,67000,Strasbourg,"67, Bas-Rhin, Grand Est",67482,,,,ok
EHPAD LES MILLES SOURIRES,14250,,Herve QUELO,EHPAD,Centre Auvergne,04 73 72 70 00,4 Quartier Lamothe,63590,CUNLHAT,-,3.557285,45.633407,0.8872,,4 Quartier Lamothe 63590 Cunlhat,housenumber,63132_b458_00004,4,4 Quartier Lamothe,Quartier Lamothe,63590,Cunlhat,"63, Puy-de-Dôme, Auvergne-Rhône-Alpes",63132,,,,ok
EHPAD LES MYRTILLES,18061,,Herve QUELO,EHPAD,Centre Auvergne,04 75 66 61 46,64 Route de a Planette,07190,ST PIERREVILLE,-,4.493419,44.818564,0.7582721521335807,,64 route de la planette 07190 Saint-Pierreville,housenumber,07286_7u66h8_00064,64,64 route de la planette,route de la planette,07190,Saint-Pierreville,"07, Ardèche, Auvergne-Rhône-Alpes",07286,,,,ok
EHPAD LES ORCHIS,18632,,Herve QUELO,EHPAD,Centre Auvergne,04 73 97 11 53,3 rue de la Barre,63460,COMBRONDE,-,3.091517,45.977484,0.8961781267217631,0.5869872727272727,3 Rue de la Barre 63460 Combronde,housenumber,63116_0005_00003,3,3 Rue de la Barre,Rue de la Barre,63460,Combronde,"63, Puy-de-Dôme, Auvergne-Rhône-Alpes",63116,,,,ok
EHPAD Les Résidences de la Mosane,18288,,Celine LUCION,EHPAD,Grand Nord-Est,03 24 26 00 56,24 RUE FLAMANVILLE,08140,BAZEILLES,-,4.977884,49.677925,0.9049477005347593,,24 Rue Flamanville 08140 Bazeilles,housenumber,08053_0220_00024,24,24 Rue Flamanville,Rue Flamanville,08140,Bazeilles,"08, Ardennes, Grand Est",08053,08053,Bazeilles,,ok
EHPAD LES SAVAROUNES,3321,,Herve QUELO,EHPAD,Centre Auvergne,04 73 31 76 00,"1, rue du Roc Blanc",63400,CHAMALIERES,-,3.060072,45.777623,0.9150149494949493,0.6702956277056277,1 rue du Roc Blanc 63400 Chamalières,housenumber,63075_1180_00001,1,1 rue du Roc Blanc,rue du Roc Blanc,63400,Chamalières,"63, Puy-de-Dôme, Auvergne-Rhône-Alpes",63075,,,,ok
EHPAD LES TERRASSES DE L'IBIE,15338,,Herve QUELO,EHPAD,Centre Auvergne,04 75 94 82 87,76 Allée Auguste Jouret,07170,VILLENEUVE DE BERG,-,4.505203,44.558114,0.9131284848484847,,76 Allée Auguste Jouret 07170 Villeneuve-de-Berg,housenumber,07341_0027_00076,76,76 Allée Auguste Jouret,Allée Auguste Jouret,07170,Villeneuve-de-Berg,"07, Ardèche, Auvergne-Rhône-Alpes",07341,,,,ok
EHPAD LES TROIS SOURCES - CDE PAR 12779,12778,,Dorian SANCHEZ,EHPAD,Sud-Est,04 66 45 60 08,4 Place Care,48150,MEYRUEIS,-,3.430121,44.179301,0.713400909090909,0.588848732782369,4 Place du Caire 48150 Meyrueis,housenumber,48096_0017_00004,4,4 Place du Caire,Place du Caire,48150,Meyrueis,"48, Lozère, Occitanie",48096,,,,ok
EHPAD LES VALLONS FLEURIS,18705,,Herve QUELO,EHPAD,Centre Auvergne,04 73 54 52 52,2 AVENUE CHARLES DE GAULLE,63570,BRASSAC LES MINES,-,3.319197,45.419003,0.9096663636363634,,2 Avenue Charles de Gaulle 63570 Brassac-les-Mines,housenumber,63050_0036_00002,2,2 Avenue Charles de Gaulle,Avenue Charles de Gaulle,63570,Brassac-les-Mines,"63, Puy-de-Dôme, Auvergne-Rhône-Alpes",63050,,,,ok
EHPAD LOUIS TAURANT,14916,,Herve QUELO,EHPAD,Centre Auvergne,04 71 64 28 00,1 rue de de la Jordanne,15000,AURILLAC,-,2.442167,44.919145,0.844560956937799,0.6994442857142856,1 Rue de la Jordanne 15000 Aurillac,housenumber,15014_1321_00001,1,1 Rue de la Jordanne,Rue de la Jordanne,15000,Aurillac,"15, Cantal, Auvergne-Rhône-Alpes",15014,,,,ok
EHPAD L’EMERAUDE,9670,,Aurore Auffret,EHPAD,Bretagne,02 96 41 93 37,Boulevard de la Cote d’émeraude,22380,ST CAST LE GUILDO,-,-2.265064,48.633042,0.8531163020030816,,Boulevard de la Côte d'Emeraude 22380 Saint-Cast-le-Guildo,street,22282_0880,,Boulevard de la Côte d'Emeraude,Boulevard de la Côte d'Emeraude,22380,Saint-Cast-le-Guildo,"22, Côtes-d'Armor, Bretagne",22282,,,,ok
EHPAD MICHEL LAMARCHE,6298,,Aurore Auffret,EHPAD,Bretagne,02 96 84 60 47,Rue du 19 mars 1962,22250,BROONS,-,-2.260823,48.314817,0.8948654545454545,,Rue du 19 Mars 1962 22250 Broons,street,22020_0225,,Rue du 19 Mars 1962,Rue du 19 Mars 1962,22250,Broons,"22, Côtes-d'Armor, Bretagne",22020,,,,ok
EHPAD MON REPOS,6758,,Aurore Auffret,EHPAD,Bretagne,02 40 33 53 57,Route Vieillevigne,44140,AIGREFEUILLE SUR MAINE,-,-1.399267,47.074619,0.7957603743315508,,Rue de Vieillevigne 44140 Aigrefeuille-sur-Maine,street,44002_0115,,Rue de Vieillevigne,Rue de Vieillevigne,44140,Aigrefeuille-sur-Maine,"44, Loire-Atlantique, Pays de la Loire",44002,,,,ok
EHPAD Nazareth,16717,,Herve QUELO,EHPAD,Centre Auvergne,04 71 06 66 70,60 Av. Maréchal Foch,43000,LE PUY EN VELAY,-,3.887185,45.037771,0.814277233201581,,60 Avenue Marechal Foch 43000 Le Puy-en-Velay,housenumber,43157_1340_00060,60,60 Avenue Marechal Foch,Avenue Marechal Foch,43000,Le Puy-en-Velay,"43, Haute-Loire, Auvergne-Rhône-Alpes",43157,,,,ok
EHPAD PAUL VALERY,15633,,Herve QUELO,EHPAD,Centre Auvergne,04 83 92 94 15,13 rue Françoise-Hélène Jourda,63000,CLERMONT FERRAND,-,3.125035,45.773312,0.9333501372212692,,13 rue Françoise Hélène Jourda 63000 Clermont-Ferrand,housenumber,63113_1956_00013,13,13 rue Françoise Hélène Jourda,rue Françoise Hélène Jourda,63000,Clermont-Ferrand,"63, Puy-de-Dôme, Auvergne-Rhône-Alpes",63113,,,,ok
EHPAD PEN AR STEIR,17705,,Aurore Auffret,EHPAD,Bretagne,02 98 91 80 90,1 RUE DE LANDIBILIC,29180,PLOGONNEC,-,-4.195856,48.081872,0.9040183116883116,0.6598871175166298,1 Rue de Landibilic 29180 Plogonnec,housenumber,29169_0460_00001,1,1 Rue de Landibilic,Rue de Landibilic,29180,Plogonnec,"29, Finistère, Bretagne",29169,,,,ok
EHPAD PIERRE BEREGOVOY,15496,,Herve QUELO,EHPAD,Centre Auvergne,03 86 38 44 00,18 rue du Commandant Achet,58160,IMPHY,-,3.270857,46.926551,0.9077140191387558,,18 Rue du Commandant Achet 58160 Imphy,housenumber,58134_0223_00018,18,18 Rue du Commandant Achet,Rue du Commandant Achet,58160,Imphy,"58, Nièvre, Bourgogne-Franche-Comté",58134,,,,ok
EHPAD PIERRE DE CELLE,14738,,Celine LUCION,EHPAD,Grand Nord-Est,03 25 45 68 90,17 rue Gilbert Médéric,10120,ST ANDRE LES VERGERS,-,4.048061,48.280476,0.8425886620926244,,17 Rue Gilbert Médéric 10120 Saint-André-les-Vergers,housenumber,10333_1610_00017,17,17 Rue Gilbert Médéric,Rue Gilbert Médéric,10120,Saint-André-les-Vergers,"10, Aube, Grand Est",10333,,,,ok
EHPAD RESIDENCE CAYLUS,14201,,Herve QUELO,EHPAD,Centre Auvergne,04 71 48 34 55,12 rue Caylus,15000,AURILLAC,-,2.43994,44.92475,0.8992431168831169,,12 Rue Caylus 15000 Aurillac,housenumber,15014_0440_00012,12,12 Rue Caylus,Rue Caylus,15000,Aurillac,"15, Cantal, Auvergne-Rhône-Alpes",15014,,,,ok
EHPAD RESIDENCE LA JORDANNE,14196,,Herve QUELO,EHPAD,Centre Auvergne,04 71 64 28 00,1 rue de la Jordanne,15000,AURILLAC,-,2.442167,44.919145,0.9122301298701299,0.7493943356643357,1 Rue de la Jordanne 15000 Aurillac,housenumber,15014_1321_00001,1,1 Rue de la Jordanne,Rue de la Jordanne,15000,Aurillac,"15, Cantal, Auvergne-Rhône-Alpes",15014,,,,ok
EHPAD RESIDENCE LES PINS,11868,,Herve QUELO,EHPAD,Centre Auvergne,05 55 00 01 02,"5, avenue Léon Dunaud",87310,ST LAURENT SUR GORRE,-,0.955179,45.764522,0.817222816399287,,5 Avenue Leon Dunaud 87310 Saint-Laurent-sur-Gorre,housenumber,87158_0138_00005,5,5 Avenue Leon Dunaud,Avenue Leon Dunaud,87310,Saint-Laurent-sur-Gorre,"87, Haute-Vienne, Nouvelle-Aquitaine",87158,,,,ok
EHPAD RESIDENCE MALLET,9447,,Herve QUELO,EHPAD,Centre Auvergne,04 71 23 18 18,Lieudit Le Mallet,15500,MASSIAC,-,3.197713,45.251639,0.48644553911205074,,Rue du Docteur Mallet 15500 Massiac,street,15119_0060,,Rue du Docteur Mallet,Rue du Docteur Mallet,15500,Massiac,"15, Cantal, Auvergne-Rhône-Alpes",15119,,,,ok
EHPAD ROGER BESSON,12055,,Herve QUELO,EHPAD,Centre Auvergne,04 70 99 80 35,"8, rue Roger Besson",03150,ST GERAND LE PUY,-,3.511678,46.255702,0.8033440404040403,,8 Rue Roger Besson 03150 Saint-Gérand-le-Puy,housenumber,03235_0401_00008,8,8 Rue Roger Besson,Rue Roger Besson,03150,Saint-Gérand-le-Puy,"03, Allier, Auvergne-Rhône-Alpes",03235,,,,ok
EHPAD SAINT GABRIEL,14868,,Laurent DURIEUX,EHPAD,Val de Loire,02 51 42 15 41,20 Rue de la vendée,85610,CUGAND,-,-1.253283,47.062864,0.7557259530791788,0.5180172727272727,20 Rue de la vendée 85610 Cugand-la-Bernardière,housenumber,85076_0670_00020,20,20 Rue de la vendée,Rue de la vendée,85610,Cugand-la-Bernardière,"85, Vendée, Pays de la Loire",85076,85076,CUGAND,,ok
EHPAD SAINT JEAN-BAPTISTE,17427,,Herve QUELO,EHPAD,Centre Auvergne,04 73 86 22 46,LE BOURG,63410,LOUBEYRAT,-,3.010825,45.936102,0.8645278787878786,0.6709251851851851,Le Bourg 63410 Loubeyrat,locality,63198_yki82r,,Le Bourg,,63410,Loubeyrat,"63, Puy-de-Dôme, Auvergne-Rhône-Alpes",63198,,,,ok
EHPAD SAINT LOUIS,16743,,Aurore Auffret,EHPAD,Bretagne,02 40 26 70 33,49 Rue Jean Baptiste,44140,GENESTON,-,-1.518765,47.055362,0.7651648051948051,,49 Rue  Jean-Baptiste Legeay 44140 Geneston,housenumber,44223_0094_00049,49,49 Rue  Jean-Baptiste Legeay,Rue  Jean-Baptiste Legeay,44140,Geneston,"44, Loire-Atlantique, Pays de la Loire",44223,,,,ok
EHPAD SAINT MARTIN,17197,HABITAT & HUMANISME SOIN,Celine LUCION,EHPAD,Grand Nord-Est,03 26 07 33 44,33 RUE DE BETHENY,51100,REIMS,-,4.045868,49.267032,0.9158049843260186,0.5612986776859503,33 Rue de Bétheny 51100 Reims,housenumber,51454_0870_00033,33,33 Rue de Bétheny,Rue de Bétheny,51100,Reims,"51, Marne, Grand Est",51454,,,,ok
EHPAD SAINT-RAPHAEL,12414,,Laurent DURIEUX,EHPAD,Val de Loire,02 43 95 19 25,3 Rue Jules Alain,72300,SOLESMES,-,-0.304084,47.850865,0.8936763636363636,,3 Rue  Jules Alain 72300 Solesmes,housenumber,72336_0380_00003,3,3 Rue  Jules Alain,Rue  Jules Alain,72300,Solesmes,"72, Sarthe, Pays de la Loire",72336,,,,ok
EHPAD Saint-Sulpice,18234,,Herve QUELO,EHPAD,Centre Auvergne,04 77 69 31 00,729 rue Saint Sulpice,42300,VILLEREST,-,4.024993,45.990234,0.7355590909090909,,729 Route de Saint-Sulpice 42300 Villerest,housenumber,42332_0106_00729,729,729 Route de Saint-Sulpice,Route de Saint-Sulpice,42300,Villerest,"42, Loire, Auvergne-Rhône-Alpes",42332,,,,ok
EHPAD ST CHARLES SCHILTIGHEIM,15468,,Celine LUCION,EHPAD,Grand Nord-Est,0388621212,31 RUE ST CHARLES,67300,SCHILTIGHEIM,-,7.739433,48.604997,0.8074663636363635,0.5742750649350649,31 Rue Saint-Charles 67300 Schiltigheim,housenumber,67447_1270_00031,31,31 Rue Saint-Charles,Rue Saint-Charles,67300,Schiltigheim,"67, Bas-Rhin, Grand Est",67447,,,,ok
EHPAD ST JEAN,15038,,Laurent DURIEUX,EHPAD,Val de Loire,,12 Rue Michelet,36000,CHATEAUROUX,-,1.709515,46.800793,0.9106426721763086,,12 Rue Michelet 36000 Châteauroux,housenumber,36044_1970_00012,12,12 Rue Michelet,Rue Michelet,36000,Châteauroux,"36, Indre, Centre-Val de Loire",36044,,,,ok
EHPAD ST JOSEPH,9885,,Celine LUCION,EHPAD,Grand Nord-Est,02 32 79 25 00,20 Rue du Père Arson,76700,ROGERVILLE,-,0.282576,49.509722,0.9067890417690416,,20 Rue du Père Arson 76700 Rogerville,housenumber,76533_0150_00020,20,20 Rue du Père Arson,Rue du Père Arson,76700,Rogerville,"76, Seine-Maritime, Normandie",76533,,,,ok
EHPAD ST JOSEPH-SIAMPADH,12494,,IDF,EHPAD,Ile de France,01 64 24 32 36,41 avenue de Fontainebleau,77760,LA CHAPELLE LA REINE,-,2.574438,48.319513,0.9239665008576328,,41 Avenue de Fontainebleau 77760 La Chapelle-la-Reine,housenumber,77088_0200_00041,41,41 Avenue de Fontainebleau,Avenue de Fontainebleau,77760,La Chapelle-la-Reine,"77, Seine-et-Marne, Île-de-France",77088,,,,ok
EHPAD STV BAGUER MORVAN,9771,Hopital Saint Thomas de Villeneuve,Aurore Auffret,EHPAD,Bretagne,02 99 80 99 80,Chemin Du Heron,35120,BAGUER MORVAN,-,-1.769423,48.525188,0.8995774025974025,,Chemin du Héron 35120 Baguer-Morvan,street,35009_0021,,Chemin du Héron,Chemin du Héron,35120,Baguer-Morvan,"35, Ille-et-Vilaine, Bretagne",35009,,,,ok
Ehpad Villa Claudine,17895,,Herve QUELO,EHPAD,Centre Auvergne,04 70 41 56 66,4 place de la Mairie,63310,RANDAN,-,3.352674,46.013149,0.8954844903581267,0.5386704812834224,4 Place de la Mairie 63310 Randan,housenumber,63295_0055_00004,4,4 Place de la Mairie,Place de la Mairie,63310,Randan,"63, Puy-de-Dôme, Auvergne-Rhône-Alpes",63295,,,,ok
EHPAD VILLA SAINTE MARIE,9445,,Herve QUELO,EHPAD,Centre Auvergne,04 71 48 10 94,23 rue du Général Destaing,15000,AURILLAC,-,2.438635,44.924373,0.8605244820295983,0.5333616083916084,23 Rue du General d’Estaing 15000 Aurillac,housenumber,15014_jpgelp_00023,23,23 Rue du General d’Estaing,Rue du General d’Estaing,15000,Aurillac,"15, Cantal, Auvergne-Rhône-Alpes",15014,,,,ok
EL CANT DELS OCELLS EHPAD,2308,,Dorian SANCHEZ,EHPAD,Sud-Est,04 68 39 72 01,Route Preste,66230,PRATS DE MOLLO LA PRESTE,-,2.44095,42.413765,0.8429654545454545,0.7030655502392343,Route de la Preste 66230 Prats-de-Mollo-la-Preste,street,66150_9qqceu,,Route de la Preste,Route de la Preste,66230,Prats-de-Mollo-la-Preste,"66, Pyrénées-Orientales, Occitanie",66150,,,,ok
ELVIRE GAY EHPAD,2567,,Caroline VILLEMUR,EHPAD,Sud-Ouest,05 61 88 20 28,3 Avenue de Saint Gaudens,31350,BOULOGNE SUR GESSE,-,0.65063,43.291005,0.9140418181818182,,3 Avenue de Saint Gaudens 31350 Boulogne-sur-Gesse,housenumber,31080_0168_00003,3,3 Avenue de Saint Gaudens,Avenue de Saint Gaudens,31350,Boulogne-sur-Gesse,"31, Haute-Garonne, Occitanie",31080,,,,ok
EMILIE DE VILLENEUVE EHPAD,7243,,Caroline VILLEMUR,EHPAD,Sud-Ouest,05 63 62 39 00,9 Avenue Emilie de Villeneuve,81100,CASTRES,-,2.243562,43.601191,0.9316848837209302,,9 Avenue Emilie de Villeneuve 81100 Castres,housenumber,81065_1270_00009,9,9 Avenue Emilie de Villeneuve,Avenue Emilie de Villeneuve,81100,Castres,"81, Tarn, Occitanie",81065,,,,ok
ENTRE DEUX MERS EHPAD KORIAN,8667,KORIAN,Caroline VILLEMUR,EHPAD,Sud-Ouest,05 56 71 86 49,44 Boulevard du 11 Novembre 1918,33540,SAUVETERRE DE GUYENNE,-,-0.08906,44.6932,0.9273669696969697,,44 Boulevard du 11 novembre 1918 33540 Sauveterre-de-Guyenne,housenumber,33506_0063_00044,44,44 Boulevard du 11 novembre 1918,Boulevard du 11 novembre 1918,33540,Sauveterre-de-Guyenne,"33, Gironde, Nouvelle-Aquitaine",33506,,,,ok
ESCANDIHADO EHPAD,9926,,Dorian SANCHEZ,EHPAD,Sud-Est,04 94 80 99 20,560 AVENUE GENERAL DE GAULLE,83340,FLASSANS SUR ISSOLE,-,6.225381,43.37103,0.8830197288676235,,560 Avenue du General de Gaulle 83340 Flassans-sur-Issole,housenumber,83057_0057_00560,560,560 Avenue du General de Gaulle,Avenue du General de Gaulle,83340,Flassans-sur-Issole,"83, Var, Provence-Alpes-Côte d'Azur",83057,,,,ok
ESCANDIHADO SITE DE BESSE EHPAD,9913,,Dorian SANCHEZ,EHPAD,Sud-Est,04 94 69 73 88,237 CHEMIN DE FLANQUEGIERE,83890,BESSE SUR ISSOLE,-,6.162845,43.346034,0.7612477622377621,0.6360795041322314,Chemin de Flanquegiaire 83890 Besse-sur-Issole,street,83018_ymo4n1,,Chemin de Flanquegiaire,Chemin de Flanquegiaire,83890,Besse-sur-Issole,"83, Var, Provence-Alpes-Côte d'Azur",83018,,,,ok
ESKUALDUNA EHPAD DOMUSVI,5602,DOMUSVI,Caroline VILLEMUR,EHPAD,Sud-Ouest,05 59 47 57 00,455 ave du Gl de Gaulle,64210,GUETHARY,-,-1.609125,43.424251,0.7228580464216634,,455 Avenue du Général de Gaulle 64210 Guéthary,housenumber,64249_0268_00455,455,455 Avenue du Général de Gaulle,Avenue du Général de Gaulle,64210,Guéthary,"64, Pyrénées-Atlantiques, Nouvelle-Aquitaine",64249,,,,ok
ESTIBERE EHPAD,10176,,Caroline VILLEMUR,EHPAD,Sud-Ouest,05 59 05 39 06,4 rue du Bialé,64440,LARUNS,-,-0.427451,42.988282,0.8866026599326599,,4 Rue du Biale 64440 Laruns,housenumber,64320_0130_00004,4,4 Rue du Biale,Rue du Biale,64440,Laruns,"64, Pyrénées-Atlantiques, Nouvelle-Aquitaine",64320,,,,ok
ETXETOA EHPAD,2715,,Caroline VILLEMUR,EHPAD,Sud-Ouest,05 59 93 50 00,Lotissement Etxetoa,64250,SOURAIDE,-,-1.468137,43.336446,0.5276876053215077,,Chemin d'Etxetoa 64250 Souraïde,street,64527_0185,,Chemin d'Etxetoa,Chemin d'Etxetoa,64250,Souraïde,"64, Pyrénées-Atlantiques, Nouvelle-Aquitaine",64527,,,,ok
EUGENIE DESJOBERT EHPAD (EX 5149),11937,,Caroline VILLEMUR,EHPAD,Sud-Ouest,05 58 41 97 10,2 avenue Simone de Beauvoir,40130,CAPBRETON,-,-1.409226,43.653587,0.9219967019027484,,2 Avenue Simone de Beauvoir 40130 Capbreton,housenumber,40065_0263_00002,2,2 Avenue Simone de Beauvoir,Avenue Simone de Beauvoir,40130,Capbreton,"40, Landes, Nouvelle-Aquitaine",40065,,,,ok
EUZIERE EHPAD,2744,,Dorian SANCHEZ,EHPAD,Sud-Est,04 66 56 37 37,RUE YOURI GAGARINE,30480,CENDRAS,-,4.054163,44.158438,0.8897018181818181,,Rue Youri Gagarine 30480 Cendras,street,30077_0180,,Rue Youri Gagarine,Rue Youri Gagarine,30480,Cendras,"30, Gard, Occitanie",30077,,,,ok
FABIEN LANAVE EHPAD,15387,Fondation Père Favron,Export,EHPAD,Dom-Tom,+262 262 91 55 20,80 Av. de la Commune de Paris,97420,LE PORT,-,55.292486,-20.944806,0.8155020309477755,,80 Avenue de la Commune de Paris 97420 Le Port,housenumber,97407_0131_00080,80,80 Avenue de la Commune de Paris,Avenue de la Commune de Paris,97420,Le Port,"974, La Réunion",97407,,,,ok
FLEURS D'AUTOMNE EHPAD,4171,,Aurelien COURTOISIER,EHPAD,Centre-Est,04 72 02 64 64,"1, rue de la Soie",69150,DECINES CHARPIEU,-,4.94342,45.770952,0.9074726806526806,,1 Rue de la Soie 69150 Décines-Charpieu,housenumber,69275_1224_00001,1,1 Rue de la Soie,Rue de la Soie,69150,Décines-Charpieu,"69, Rhône, Auvergne-Rhône-Alpes",69275,,,,ok
FLORE D'ARC EHPAD,3802,,Dorian SANCHEZ,EHPAD,Sud-Est,04 42 32 55 00,"6, avenue de Flore",13420,GEMENOS,-,5.628052,43.297202,0.7074906611570247,0.6314180213903743,6 Rue de Flore 13420 Gémenos,housenumber,13042_0161_00006,6,6 Rue de Flore,Rue de Flore,13420,Gémenos,"13, Bouches-du-Rhône, Provence-Alpes-Côte d'Azur",13042,,,,ok
FOIX DE CANDALLE EHPAD,0787,,Laurent DURIEUX,EHPAD,Val de Loire,05 53 80 32 63,24 Rue Maréchal Foch,24700,MONTPON MENESTEROL,-,0.163312,45.007967,0.8663275757575758,,24 Rue du Maréchal Foch 24700 Montpon-Ménestérol,housenumber,24294_0132_00024,24,24 Rue du Maréchal Foch,Rue du Maréchal Foch,24700,Montpon-Ménestérol,"24, Dordogne, Nouvelle-Aquitaine",24294,,,,ok
FONDATION DELTA PLUS LIMOGES,10826,,Herve QUELO,EHPAD,Centre Auvergne,05 55 35 28 81,"6, rue Rhin et Danube",87380,LIMOGES,-,1.29549,45.881689,0.821851212121212,,6 rue Rhin et Danube 87280 Limoges,housenumber,87085_4542_00006,6,6 rue Rhin et Danube,rue Rhin et Danube,87280,Limoges,"87, Haute-Vienne, Nouvelle-Aquitaine",87085,,,,ok
FONDATION PAULIANI,1823,,Dorian SANCHEZ,EHPAD,Sud-Est,04 92 17 66 00/ 6725,4 avenue Pauliani,06000,NICE,-,7.280167,43.706334,0.9136494805194805,0.48598297520661154,4 Avenue Pauliani 06000 Nice,housenumber,06088_4915_00004,4,4 Avenue Pauliani,Avenue Pauliani,06000,Nice,"06, Alpes-Maritimes, Provence-Alpes-Côte d'Azur",06088,,,,ok
FONDATION SAINT SEVER,6197,,Caroline VILLEMUR,EHPAD,Sud-Ouest,05 58 08 02 22,25 rue de la Mairie,40430,LUXEY,-,-0.518693,44.264159,0.8843807917888562,,25 Rue de la Mairie 40430 Luxey,housenumber,40167_0080_00025,25,25 Rue de la Mairie,Rue de la Mairie,40430,Luxey,"40, Landes, Nouvelle-Aquitaine",40167,,,,ok
FONTDIVINA EHPAD KORIAN,2345,KORIAN,Dorian SANCHEZ,EHPAD,Sud-Est,04 97 17 75 00,CHEMIN ROMAIN,06240,BEAUSOLEIL,-,7.425545,43.751128,0.9058484848484848,0.6896845454545453,Chemin Romain 06240 Beausoleil,street,06012_0600,,Chemin Romain,Chemin Romain,06240,Beausoleil,"06, Alpes-Maritimes, Provence-Alpes-Côte d'Azur",06012,,,,ok
FOYER DE SUREL,17964,,Dorian SANCHEZ,EHPAD,Sud-Est,04 75 58 81 47,ADAPEI DROME,26320,ST MARCEL LES VALENCE,-,4.952027,44.972973,0.5632521353065539,0.5295097520661156,Saint-Marcel-lès-Valence,municipality,26313,,Saint-Marcel-lès-Valence,,26320,Saint-Marcel-lès-Valence,"26, Drôme, Auvergne-Rhône-Alpes",26313,,,,ok
FOYER LES RIVALIERES,16468,,Herve QUELO,EHPAD,Centre Auvergne,04 73 55 02 31,947 ROUTE DE CLERMOND-FERRAND,63500,ISSOIRE,-,3.25101,45.564213,0.6812898989898989,0.45918762923351153,947 Route de Clermont 63500 Issoire,housenumber,63178_0460_00947,947,947 Route de Clermont,Route de Clermont,63500,Issoire,"63, Puy-de-Dôme, Auvergne-Rhône-Alpes",63178,,,,ok
FOYER LES SOURCES F.A.H.G,16744,,Celine LUCION,EHPAD,Grand Nord-Est,07 83 36 69 56,236 PAIRIS,68370,ORBEY,-,7.123381,48.11548,0.8716162809917355,0.6358892307692308,236 Pairis 68370 Orbey,housenumber,68249_m6kj42_00236,236,236 Pairis,Pairis,68370,Orbey,"68, Haut-Rhin, Grand Est",68249,,,,ok
FOYER PAUL HERNOT,13792,CCAS,Aurore Auffret,EHPAD,Bretagne,02 96 37 04 18,4 Rue Emmanuel Sieyès,22300,LANNION,-,-3.448504,48.726959,0.9095928571428571,,4 Rue Emmanuel Sieyès 22300 Lannion,housenumber,22113_1522_00004,4,4 Rue Emmanuel Sieyès,Rue Emmanuel Sieyès,22300,Lannion,"22, Côtes-d'Armor, Bretagne",22113,,,,ok
FRANCIS CATALA EHPAD,3732,,Dorian SANCHEZ,EHPAD,Sud-Est,04 68 05 47 00,"12, avenue Conventionnel Fabre",66320,VINCA,-,2.52491,42.643419,0.854765123966942,,12 Avenue du Conventionnel Fabre 66320 Vinça,housenumber,66230_0086_00012,12,12 Avenue du Conventionnel Fabre,Avenue du Conventionnel Fabre,66320,Vinça,"66, Pyrénées-Orientales, Occitanie",66230,,,,ok
FRANCOIS D'ASSISE EHPAD,5213,HABITAT & HUMANISME SOIN,Aurelien COURTOISIER,EHPAD,Centre-Est,03 84 86 40 00,75 Rue Marcel Paul,39000,LONS LE SAUNIER,-,5.55792,46.67528,0.9169554545454545,0.7268149407114624,75 Rue Marcel Paul 39000 Lons-le-Saunier,housenumber,39300_0628_00075,75,75 Rue Marcel Paul,Rue Marcel Paul,39000,Lons-le-Saunier,"39, Jura, Bourgogne-Franche-Comté",39300,,,,ok
GAMBETTA EHPAD,14768,,Celine LUCION,EHPAD,Grand Nord-Est,03 20 21 50 40,99 rue du Marché,59000,LILLE,-,3.052756,50.624579,0.9165594805194806,,99 Rue du Marché 59000 Lille,housenumber,59350_5893_00099,99,99 Rue du Marché,Rue du Marché,59000,Lille,"59, Nord, Hauts-de-France",59350,59350,Lille,,ok
GARAZI EHPAD,3893,,Caroline VILLEMUR,EHPAD,Sud-Ouest,05 59 37 10 48,Bourg Ispoure,64220,SAINT JEAN PIED DE PORT,-,-1.219677,43.167812,0.7346147309833023,,Route de Saint-Jean-Pied-de-Port 64220 Ispoure,street,64275_sdaw4u,,Route de Saint-Jean-Pied-de-Port,Route de Saint-Jean-Pied-de-Port,64220,Ispoure,"64, Pyrénées-Atlantiques, Nouvelle-Aquitaine",64275,,,,ok
GAUTIER BEAUREGARD EHPAD,10006,,Herve QUELO,EHPAD,Centre Auvergne,04 73 68 02 83,56 Place du Coudert,63116,BEAUREGARD L'EVEQUE,-,3.297042,45.812695,0.9123377777777777,,56 Place du Coudert 63116 Beauregard-l'Évêque,housenumber,63034_0040_00056,56,56 Place du Coudert,Place du Coudert,63116,Beauregard-l'Évêque,"63, Puy-de-Dôme, Auvergne-Rhône-Alpes",63034,,,,ok
GCS PUI ANJOU,3303,,Laurent DURIEUX,EHPAD,Val de Loire,02 41 83 47 00,"187, rue de l’hôpital",49700,DOUE EN ANJOU,-,-0.267158,47.193642,0.911501818181818,0.6541854545454545,187 Rue de l'Hôpital 49700 Doué-en-Anjou,housenumber,49125_0595_00187,187,187 Rue de l'Hôpital,Rue de l'Hôpital,49700,Doué-en-Anjou,"49, Maine-et-Loire, Pays de la Loire",49125,49125,Doué-la-Fontaine,,ok
GERARD MINVIELLE EHPAD,8035,,Caroline VILLEMUR,EHPAD,Sud-Ouest,05 58 73 41 42,A/A de MME UNG,40400,TARTAS,-,-0.798924,43.867078,0.5280866666666666,0.5212839393939394,Route de Tartas 40400 Carcen-Ponson,street,40067_0190,,Route de Tartas,Route de Tartas,40400,Carcen-Ponson,"40, Landes, Nouvelle-Aquitaine",40067,,,,ok
GERMAINE LEDAN EHPAD,8998,,Aurore Auffret,EHPAD,Bretagne,02 96 41 02 79,11 rue Ledan,22550,MATIGNON,-,-2.287698,48.593788,0.8845153872053871,,11 Rue Ledan 22550 Matignon,housenumber,22143_0260_00011,11,11 Rue Ledan,Rue Ledan,22550,Matignon,"22, Côtes-d'Armor, Bretagne",22143,,,,ok
GLORIANDE EHPAD,8306,,Dorian SANCHEZ,EHPAD,Sud-Est,05 65 70 31 00,Rue Henri Noguerre,12150,SEVERAC LE CHATEAU,-,3.071524,44.31946,0.5314418518518518,0.4499945454545455,Rue Henri Noguères 12150 Sévérac d'Aveyron,street,12270_0161,,Rue Henri Noguères,Rue Henri Noguères,12150,Sévérac d'Aveyron,"12, Aveyron, Occitanie",12270,12270,Sévérac-le-Château,,ok
GOXA LEKU EHPAD,3335,,Caroline VILLEMUR,EHPAD,Sud-Ouest,05 59 37 73 73,Centre Bourg,64640,IHOLDY,-,-1.177067,43.29816,0.47104147335423197,0.44029575757575756,Route d'Iholdy 64640 Armendarits,street,64046_0460,,Route d'Iholdy,Route d'Iholdy,64640,Armendarits,"64, Pyrénées-Atlantiques, Nouvelle-Aquitaine",64046,,,,ok
GROUPE SOS SENIORS LE PLATEAU,14387,SOS,Celine LUCION,EHPAD,Grand Nord-Est,0382545400,,57840,OTTANGE,-,6.016067,49.43583,0.9405127272727273,0.5437023140495868,Ottange,municipality,57529,,Ottange,,57840,Ottange,"57, Moselle, Grand Est",57529,,,,ok
HAIZPEAN EHPAD,5605,,Caroline VILLEMUR,EHPAD,Sud-Ouest,05 59 01 10 30,79 rue de l'Armatonde,64700,HENDAYE,-,-1.756633,43.376247,0.7827850505050504,0.5405491341991343,79 Rue d'Armatonde 64700 Hendaye,housenumber,64260_0170_00079,79,79 Rue d'Armatonde,Rue d'Armatonde,64700,Hendaye,"64, Pyrénées-Atlantiques, Nouvelle-Aquitaine",64260,,,,ok
HAMEAU D'EGUZON,14128,,Laurent DURIEUX,EHPAD,Val de Loire,02 54 01 66 10,"24, rue Jean Jaurès",36270,EGUZON CHANTOME,-,1.578094,46.445425,0.9095899999999999,,24 Rue Jean Jaurès 36270 Éguzon-Chantôme,housenumber,36070_0030_00024,24,24 Rue Jean Jaurès,Rue Jean Jaurès,36270,Éguzon-Chantôme,"36, Indre, Centre-Val de Loire",36070,,,,ok
HARMONIE EHPAD,17659,,Celine LUCION,EHPAD,Grand Nord-Est,03 27 23 78 00,EHPAD HARMONIE,59300,AULNOY LEZ VALENCIENNES,-,3.52805,50.330067,0.6272989006342494,0.5832302673796791,Aulnoy-lez-Valenciennes,municipality,59032,,Aulnoy-lez-Valenciennes,,59300,Aulnoy-lez-Valenciennes,"59, Nord, Hauts-de-France",59032,,,,ok
HENRI FRUGIER EHPAD,3908,,Laurent DURIEUX,EHPAD,Val de Loire,05 53 52 81 32,rue de la République,24450,LA COQUILLE,-,0.976732,45.541716,0.9079531100478467,0.7330929752066115,Rue de la République 24450 La Coquille,street,24133_0102,,Rue de la République,Rue de la République,24450,La Coquille,"24, Dordogne, Nouvelle-Aquitaine",24133,,,,ok
HERRI BURUA EHPAD COLISEE,3744,COLISEE,Caroline VILLEMUR,EHPAD,Sud-Ouest,05 59 43 20 20,3 place Harrismendi,64210,ARBONNE,-,-1.550885,43.432134,0.8640835537190081,0.5714459906759906,3 Place Harismendi 64210 Arbonne,housenumber,64035_3863_00003,3,3 Place Harismendi,Place Harismendi,64210,Arbonne,"64, Pyrénées-Atlantiques, Nouvelle-Aquitaine",64035,,,,ok
HESTIADOUR EHPAD-FLEXI,5789,,Caroline VILLEMUR,EHPAD,Sud-Ouest,05 58 35 39 32,52 rue du Champ du Bourg,40465,PONTONX SUR L'ADOUR,-,-0.929413,43.788595,0.9140799999999999,0.5964516883116883,52 Rue du Champ du Bourg 40465 Pontonx-sur-l'Adour,housenumber,40230_0388_00052,52,52 Rue du Champ du Bourg,Rue du Champ du Bourg,40465,Pontonx-sur-l'Adour,"40, Landes, Nouvelle-Aquitaine",40230,,,,ok
HOME ARMENIEN EHPAD,8266,,Dorian SANCHEZ,EHPAD,Sud-Est,04 94 19 51 50,107 AV MARECHAL LYAUTEY,83700,ST RAPHAEL,-,6.773251,43.42092,0.7270898886827458,,107 Avenue Maréchal Lyautey 83700 Saint-Raphaël,housenumber,83118_1830_00107,107,107 Avenue Maréchal Lyautey,Avenue Maréchal Lyautey,83700,Saint-Raphaël,"83, Var, Provence-Alpes-Côte d'Azur",83118,,,,ok
HOME DE CORTEFREDONE EHPAD,9645,KORIAN,Aurelien COURTOISIER,EHPAD,Centre-Est,04 74 25 75 36,58 PLACE DU HOME,01310,CURTAFOND,-,5.089202,46.269737,0.8808590909090908,,58 Place du Hôme 01310 Curtafond,housenumber,01140_0110_00058,58,58 Place du Hôme,Place du Hôme,01310,Curtafond,"01, Ain, Auvergne-Rhône-Alpes",01140,,,,ok
HOSTACHY EHPAD,14208,,Aurelien COURTOISIER,EHPAD,Centre-Est,04 76 30 02 24,ROUTE LA SALETTE,38970,CORPS,-,5.948635,44.817969,0.7938451612903226,,Route de la Salette 38970 Corps,street,38128_0367,,Route de la Salette,Route de la Salette,38970,Corps,"38, Isère, Auvergne-Rhône-Alpes",38128,,,,ok
HYACINTHE HEVIN EHPAD,14919,,Aurore Auffret,EHPAD,Bretagne,02 99 96 62 06,5 Rue Hyacinthe Hevin,35370,ETRELLES,-,-1.191737,48.060735,0.8976049494949494,,5 Rue Hyacinthe Hevin 35370 Étrelles,housenumber,35109_0027_00005,5,5 Rue Hyacinthe Hevin,Rue Hyacinthe Hevin,35370,Étrelles,"35, Ille-et-Vilaine, Bretagne",35109,,,,ok
ILOT DU PARC RESIDENCE,7018,,Export,EHPAD,Export,021 796 01 11,Route de Taillepied 125,1095,LUTRY,-,,,,,,,,,,,,,,,,,,not-found
JARDIN ATLANTIQUE EHPAD,13161,KORIAN,Aurore Auffret,EHPAD,Bretagne,02 40 15 08 89,8 Rue de la Paix,44510,LE POULIGUEN,-,-2.437663,47.275022,0.9067410389610389,,8 Rue de la Paix 44510 Le Pouliguen,housenumber,44135_0888_00008,8,8 Rue de la Paix,Rue de la Paix,44510,Le Pouliguen,"44, Loire-Atlantique, Pays de la Loire",44135,,,,ok
JEAN BATISTE DELFAU EHPAD,6762,SOLEA,Dorian SANCHEZ,EHPAD,Sud-Est,05 65 46 19 10,64 Avenue d' Albi,12170,REQUISTA,-,2.530025,44.034765,0.899608973607038,,64 Avenue d'Albi 12170 Réquista,housenumber,12197_0040_00064,64,64 Avenue d'Albi,Avenue d'Albi,12170,Réquista,"12, Aveyron, Occitanie",12197,,,,ok
JEAN DITHURBIDE EHPAD,0499,,Caroline VILLEMUR,EHPAD,Sud-Ouest,05 59 54 21 59,Quartier Bourg,64310,SARE,-,-1.548389,43.335884,0.37748700879765396,0.3718945454545454,Route de Sare 64310 Saint-Pée-sur-Nivelle,street,64495_7740,,Route de Sare,Route de Sare,64310,Saint-Pée-sur-Nivelle,"64, Pyrénées-Atlantiques, Nouvelle-Aquitaine",64495,,,,ok
JEAN GALLET EHPAD,7976,,Laurent DURIEUX,EHPAD,Val de Loire,05 53 35 46 07,3 RUE RICHELIEU,24660,COULOUNIEIX CHAMIERS,-,0.6949,45.18721,0.9168490476190474,,3 Rue RICHELIEU 24660 Coulounieix-Chamiers,housenumber,24138_1410_00003,3,3 Rue RICHELIEU,Rue RICHELIEU,24660,Coulounieix-Chamiers,"24, Dordogne, Nouvelle-Aquitaine",24138,,,,ok
JEAN LOUBES EHPAD,5586,,Dorian SANCHEZ,EHPAD,Sud-Est,04 68 24 70 37,Pommes Roses,11270,FANJEAUX,-,2.033565,43.188868,0.6914935736677116,,Pomme Rose 11270 Fanjeaux,street,11136_B070,,Pomme Rose,Pomme Rose,11270,Fanjeaux,"11, Aude, Occitanie",11136,,,,ok
JEANNE COULON EHPAD,4358,,Herve QUELO,EHPAD,Centre Auvergne,04 70 98 54 88,"12, rue Neuve",03200,VICHY,-,3.461069,46.107632,0.7006763636363635,0.6432820821114369,12 Rue de Vichy 03200 Le Vernet,housenumber,03306_0320_00012,12,12 Rue de Vichy,Rue de Vichy,03200,Le Vernet,"03, Allier, Auvergne-Rhône-Alpes",03306,,,,ok
JEANNE D'ALBRET EHPAD,4365,,Caroline VILLEMUR,EHPAD,Sud-Ouest,05 59 38 76 00,"2, avenue Francis James",64300,ORTHEZ,-,-0.766404,43.485653,0.8850169696969696,,2 Avenue Francis Jammes 64300 Orthez,housenumber,64430_0270_00002,2,2 Avenue Francis Jammes,Avenue Francis Jammes,64300,Orthez,"64, Pyrénées-Atlantiques, Nouvelle-Aquitaine",64430,,,,ok
JEANNE DE BARONCELLI EHPAD,5459,,Dorian SANCHEZ,EHPAD,Sud-Est,04 90 51 91 19,2 RUE DE L HOPITAL,84860,CADEROUSSE,-,4.757753,44.104182,0.9024237662337662,,2 Rue de l'Hôpital 84860 Caderousse,housenumber,84027_0370_00002,2,2 Rue de l'Hôpital,Rue de l'Hôpital,84860,Caderousse,"84, Vaucluse, Provence-Alpes-Côte d'Azur",84027,,,,ok
JEANNE DELANOUE EHPAD AGESPA,5474,,Dorian SANCHEZ,EHPAD,Sud-Est,04 67 25 72 50,ROUTE DE CABRIERES,34320,FONTES,-,3.379927,43.547207,0.8821126099706743,,route de cabrières 34320 Fontès,street,34103_0022,,route de cabrières,route de cabrières,34320,Fontès,"34, Hérault, Occitanie",34103,,,,ok
JOACHIM FLEURY EHPAD,1659,,Aurore Auffret,EHPAD,Bretagne,02 96 84 62 31,27 Avenue de la Barrière,22250,BROONS,-,-2.26354,48.31959,0.7484706993006993,,27 Rue de la Barriere 22250 Broons,housenumber,22020_0020_00027,27,27 Rue de la Barriere,Rue de la Barriere,22250,Broons,"22, Côtes-d'Armor, Bretagne",22020,,,,ok
JP TOUCAS EHPAD,4003,,Herve QUELO,EHPAD,Centre Auvergne,04 73 85 00 78,10 RUE SAINT ROQUES,63700,MONTAIGUT EN COMBRAILLE,-,2.805119,46.180638,0.771873916083916,0.6195752791068581,10 Rue Saint Roch 63700 Montaigut-en-Combraille,housenumber,63233_0073_00010,10,10 Rue Saint Roch,Rue Saint Roch,63700,Montaigut-en-Combraille,"63, Puy-de-Dôme, Auvergne-Rhône-Alpes",63233,,,,ok
KAMOURASKA EHPAD,8234,,Aurelien COURTOISIER,EHPAD,Centre-Est,04 50 31 93 00,4 RUE VERNAZ,74240,GAILLARD,-,6.202209,46.186035,0.8138075757575757,0.6699914438502674,4 Rue de Vernaz 74240 Gaillard,housenumber,74133_0530_00004,4,4 Rue de Vernaz,Rue de Vernaz,74240,Gaillard,"74, Haute-Savoie, Auvergne-Rhône-Alpes",74133,,,,ok
KIRCHBERG MAISON DE RETRAITE,3804,,Celine LUCION,EHPAD,Grand Nord-Est,03 88 70 46 47,39 rue Kirchberg,67290,LA PETITE PIERRE,-,7.328882,48.860132,0.8397739826839826,0.7618372727272726,39 Rue du Kirchberg 67290 La Petite-Pierre,housenumber,67371_0033_00039,39,39 Rue du Kirchberg,Rue du Kirchberg,67290,La Petite-Pierre,"67, Bas-Rhin, Grand Est",67371,,,,ok
KORIAN JARDIN DE NEPTUNE,14088,KORIAN,IDF,EHPAD,Ile de France,01 55 12 21 60,"29, avenue de l'Alma",94210,LA VARENNE ST HILAIRE,-,2.660848,47.866975,0.4089381818181818,0.38010090909090904,29 Rue de Saint-Hilaire 45290 Varennes-Changy,housenumber,45332_0460_00029,29,29 Rue de Saint-Hilaire,Rue de Saint-Hilaire,45290,Varennes-Changy,"45, Loiret, Centre-Val de Loire",45332,,,,ok
KORIAN L'AIR DU TEMPS,13179,KORIAN,Celine LUCION,EHPAD,Grand Nord-Est,03 88 45 80 45,3 RUE DE LA BARONNE D'OBERKIRCH,67000,STRASBOURG,-,7.788055,48.599332,0.9385630303030302,,3 Rue de la Baronne d'Oberkirch 67000 Strasbourg,housenumber,67482_0513_00003,3,3 Rue de la Baronne d'Oberkirch,Rue de la Baronne d'Oberkirch,67000,Strasbourg,"67, Bas-Rhin, Grand Est",67482,,,,ok
KORIAN LA COTONNADE,13177,KORIAN,Celine LUCION,EHPAD,Grand Nord-Est,03 89 50 63 00,2 rue des Etoffes,68120,PFASTATT,X,7.299812,47.76101,0.8965845454545454,,2 Rue des Étoffes 68120 Pfastatt,housenumber,68256_0245_00002,2,2 Rue des Étoffes,Rue des Étoffes,68120,Pfastatt,"68, Haut-Rhin, Grand Est",68256,,,,ok
KORIAN LA VALLEE BLEUE,13319,KORIAN,Herve QUELO,EHPAD,Centre Auvergne,02 48 82 21 00,78 avenue de la République,18200,ST AMAND MONTROND,X,2.510366,46.730753,0.8513994276094276,0.6530089028213166,78 Avenue de la République 18200 Saint-Amand-Montrond,housenumber,18197_1440_00078,78,78 Avenue de la République,Avenue de la République,18200,Saint-Amand-Montrond,"18, Cher, Centre-Val de Loire",18197,,,,ok
KORIAN LE BOURGENAY,3833,KORIAN,Laurent DURIEUX,EHPAD,Val de Loire,02 51 96 88 89,1 RUE CHENAL,85100,LES SABLES D'OLONNE,-,-1.779077,46.498408,0.8522852549889135,,1 Rue du chenal 85100 Les Sables-d'Olonne,housenumber,85194_0868_00001,1,1 Rue du chenal,Rue du chenal,85100,Les Sables-d'Olonne,"85, Vendée, Pays de la Loire",85194,85194,LES SABLES-D'OLONNE,,ok
KORIAN LE DOUBS RIVAGE,13906,KORIAN,Aurelien COURTOISIER,EHPAD,Centre-Est,03 81 31 30 00,7 avenue Georges Pompidou,25200,MONTBELIARD,-,6.80044,47.497704,0.9160821564482029,0.6112580165289255,7 Avenue Georges Pompidou 25200 Montbéliard,housenumber,25388_wobpew_00007,7,7 Avenue Georges Pompidou,Avenue Georges Pompidou,25200,Montbéliard,"25, Doubs, Bourgogne-Franche-Comté",25388,,,,ok
KORIAN LE FLORE,17614,KORIAN,IDF,EHPAD,Ile de France,01 69 83 45 90,8 RUE RENE CASSIN,91230,MONTGERON,-,2.46497,48.700854,0.9123253994490357,,8 Rue René Cassin 91230 Montgeron,housenumber,91421_3425_00008,8,8 Rue René Cassin,Rue René Cassin,91230,Montgeron,"91, Essonne, Île-de-France",91421,,,,ok
KORIAN LE GENTILE,2184,KORIAN,Celine LUCION,EHPAD,Grand Nord-Est,03 83 96 46 02,La Saône,54520,LAXOU,-,6.129934,48.696402,0.6542660606060605,0.5172225358851674,Rue de la Saone 54520 Laxou,street,54304_0658,,Rue de la Saone,Rue de la Saone,54520,Laxou,"54, Meurthe-et-Moselle, Grand Est",54304,,,,ok
KORIAN LE JARDIN,14031,KORIAN,Celine LUCION,EHPAD,Grand Nord-Est,02 35 70 16 62,121 Avenue des Martyrs de la Résistance,76000,ROUEN,-,1.079247,49.420887,0.7709897979797979,0.6603878787878787,121 Av des Martyrs de la Resistance 76100 Rouen,housenumber,76540_5530_00121,121,121 Av des Martyrs de la Resistance,Av des Martyrs de la Resistance,76100,Rouen,"76, Seine-Maritime, Normandie",76540,,,,ok
KORIAN LES CATALAUNES,14145,KORIAN,Celine LUCION,EHPAD,Grand Nord-Est,03 51 78 04 00,6 rue de l'hôpital Militaire,51000,CHALONS EN CHAMPAGNE,-,4.378381,48.963944,0.9300239669421487,,6 Rue de l'Hôpital Militaire 51000 Châlons-en-Champagne,housenumber,51108_1647_00006,6,6 Rue de l'Hôpital Militaire,Rue de l'Hôpital Militaire,51000,Châlons-en-Champagne,"51, Marne, Grand Est",51108,,,,ok
KORIAN LES GRANDS CRUS,5452,KORIAN,Aurelien COURTOISIER,EHPAD,Centre-Est,03 80 54 77 00,"46, Boulevard Henri Bazin",21000,DIJON,-,5.019505,47.30046,0.9130522222222223,,46 Boulevard Henri Bazin 21000 Dijon,housenumber,21231_3954_00046,46,46 Boulevard Henri Bazin,Boulevard Henri Bazin,21000,Dijon,"21, Côte-d'Or, Bourgogne-Franche-Comté",21231,,,,ok
KORIAN LES JARDINS D'HUGO,12623,KORIAN,Celine LUCION,EHPAD,Grand Nord-Est,03 25 74 26 50,"24, rue Victor Hugo",10440,LA RIVIERE DE CORPS,-,4.028601,48.285058,0.9182331404958678,,24 Rue Victor Hugo 10440 La Rivière-de-Corps,housenumber,10321_0780_00024,24,24 Rue Victor Hugo,Rue Victor Hugo,10440,La Rivière-de-Corps,"10, Aube, Grand Est",10321,,,,ok
KORIAN LES MARQUISES,13387,KORIAN,Celine LUCION,EHPAD,Grand Nord-Est,03 20 74 12 13,68 rue Nationale,59700,MARCQ EN BAROEUL,-,3.075374,50.664828,0.9249490442890442,,68 Rue Nationale 59700 Marcq-en-Barœul,housenumber,59378_1625_00068,68,68 Rue Nationale,Rue Nationale,59700,Marcq-en-Barœul,"59, Nord, Hauts-de-France",59378,,,,ok
KORIAN MAISON DES AULNES,12910,KORIAN,Celine LUCION,EHPAD,Grand Nord-Est,03 29 58 90 40,,88100,STE MARGUERITE,-,6.969449,48.269676,0.7415660869565217,0.6932575757575757,Sainte-Marguerite,municipality,88424,,Sainte-Marguerite,,88100,Sainte-Marguerite,"88, Vosges, Grand Est",88424,,,,ok
KORIAN PASTORIA,14147,KORIAN,Celine LUCION,EHPAD,Grand Nord-Est,03 25 49 02 22,41 Avenue Pasteur,10000,TROYES,-,4.064263,48.301109,0.9150893939393938,0.5557341626794258,41 Avenue Pasteur 10000 Troyes,housenumber,10387_4010_00041,41,41 Avenue Pasteur,Avenue Pasteur,10000,Troyes,"10, Aube, Grand Est",10387,,,,ok
KORIAN PLACE ROYALE - MAISON DE RETRAITE,12582,KORIAN,Celine LUCION,EHPAD,Grand Nord-Est,03 26 88 79 79,10-12 rue Cérès,51100,REIMS,-,4.035565,49.255974,0.8720385314685314,0.5395527272727273,12 Rue Cérès 51100 Reims,housenumber,51454_1550_00012,12,12 Rue Cérès,Rue Cérès,51100,Reims,"51, Marne, Grand Est",51454,,,,ok
KORIAN PLAISANCE,12802,KORIAN,Celine LUCION,EHPAD,Grand Nord-Est,03 83 30 81 50,12 BOULEVARD 21 E REGIMENT AVIATION,54000,NANCY,-,6.19233,48.692958,0.8707721212121211,,12 Boulevard 21e Régiment Aviation 54000 Nancy,housenumber,54395_5310_00012,12,12 Boulevard 21e Régiment Aviation,Boulevard 21e Régiment Aviation,54000,Nancy,"54, Meurthe-et-Moselle, Grand Est",54395,,,,ok
KORIAN RESIDENCE LA SAULX,3682,KORIAN,Celine LUCION,EHPAD,Grand Nord-Est,03 83 96 69 66,"1, allée de la Saulx",54520,LAXOU,-,6.124006,48.697073,0.8425379472140762,0.37560232323232323,Allée de la Saulx 54520 Laxou,street,54304_0662,,Allée de la Saulx,Allée de la Saulx,54520,Laxou,"54, Meurthe-et-Moselle, Grand Est",54304,,,,ok
KORIAN RESIDENCE LES LIERRES,2227,KORIAN,IDF,EHPAD,Ile de France,01 48 71 95 00,19 rue du Bac,94170,LE PERREUX SUR MARNE,-,2.509527,48.842416,0.9211381818181817,,19 Rue du Bac 94170 Le Perreux-sur-Marne,housenumber,94058_0610_00019,19,19 Rue du Bac,Rue du Bac,94170,Le Perreux-sur-Marne,"94, Val-de-Marne, Île-de-France",94058,,,,ok
KORIAN VAL AUX FLEURS,14033,KORIAN,IDF,EHPAD,Ile de France,02 32 36 58 19,67 grande rue,27730,BUEIL,-,1.43929,48.934787,0.8876018181818182,0.5126663929618768,67 Grande Rue 27730 Bueil,housenumber,27119_0039_00067,67,67 Grande Rue,Grande Rue,27730,Bueil,"27, Eure, Normandie",27119,,,,ok
KORIAN VILLA BERAT LISIEUX,12656,KORIAN,Niels COLLEU,EHPAD,Normandie,02 31 62 16 05,70 rue du général Leclerc,14100,LISIEUX,-,0.22401,49.152485,0.9228417715617715,,70 Rue du Général Leclerc 14100 Lisieux,housenumber,14366_0570_00070,70,70 Rue du Général Leclerc,Rue du Général Leclerc,14100,Lisieux,"14, Calvados, Normandie",14366,,,,ok
KORIAN VILLA DES REMES,13379,KORIAN,Celine LUCION,EHPAD,Grand Nord-Est,03 26 02 77 00,2 rue Aix la chapelle,51100,REIMS,-,4.06347,49.25291,0.8674748051948051,0.4445777075098814,2 Rue d'Aix la Chapelle 51100 Reims,housenumber,51454_0036_00002,2,2 Rue d'Aix la Chapelle,Rue d'Aix la Chapelle,51100,Reims,"51, Marne, Grand Est",51454,,,,ok
KORIAN VILLA SAINT DO,14027,KORIAN,Celine LUCION,EHPAD,Grand Nord-Est,02 35 52 47 00,125 Avenue Maréchal Juin,76230,BOIS GUILLAUME,-,1.116788,49.464266,0.8646130303030303,,125 Avenue du Maréchal Juin 76230 Bois-Guillaume,housenumber,76108_0645_00125,125,125 Avenue du Maréchal Juin,Avenue du Maréchal Juin,76230,Bois-Guillaume,"76, Seine-Maritime, Normandie",76108,,,,ok
KORIAN VILLA SAINT-HILAIRE,14089,KORIAN,IDF,EHPAD,Ile de France,01 55 12 14 40,40 avenue Caffin,94210,SAINT-MAUR-DES-FOSSES,-,2.504736,48.792605,0.9333622314049586,,40 Avenue Caffin 94210 Saint-Maur-des-Fossés,housenumber,94068_1405_00040,40,40 Avenue Caffin,Avenue Caffin,94210,Saint-Maur-des-Fossés,"94, Val-de-Marne, Île-de-France",94068,,,,ok
L'AGE D'OR EHPAD,6142,DOMIDEP,Celine LUCION,EHPAD,Grand Nord-Est,03 44 06 33 33,1 allée des épingliers,60000,BEAUVAIS,-,2.071492,49.433332,0.9077963144963144,,1 Allée des Epingliers 60000 Beauvais,housenumber,60057_1154_00001,1,1 Allée des Epingliers,Allée des Epingliers,60000,Beauvais,"60, Oise, Hauts-de-France",60057,,,,ok
L'ARNAUD EHPAD,7461,HABITAT & HUMANISME SOIN,Dorian SANCHEZ,EHPAD,Sud-Est,04 75 70 06 24,CHEMIN DES ARNAUDS,26100,ROMANS SUR ISERE,-,5.081069,45.041234,0.7961071074380165,,Chemin de L'Arnaud 26100 Romans-sur-Isère,street,26281_0139,,Chemin de L'Arnaud,Chemin de L'Arnaud,26100,Romans-sur-Isère,"26, Drôme, Auvergne-Rhône-Alpes",26281,,,,ok
L'ARRIBET EHPAD,5655,,Caroline VILLEMUR,EHPAD,Sud-Ouest,05 59 04 47 00,Route de Samadet,64410,ARZACQ ARRAZIGUET,-,-0.410625,43.542117,0.9070527272727271,,Route de Samadet 64410 Arzacq-Arraziguet,street,64063_0176,,Route de Samadet,Route de Samadet,64410,Arzacq-Arraziguet,"64, Pyrénées-Atlantiques, Nouvelle-Aquitaine",64063,,,,ok
L'AUBIER DE CYBELE EHPAD KORIAN,7881,KORIAN,Dorian SANCHEZ,EHPAD,Sud-Est,04 94 44 90 00,QUARTIER DE LA TOUR DE MARE,83600,FREJUS,-,6.749322,43.422491,0.45070751286449395,,Passage du QUARTIER LATIN 83600 Fréjus,street,83061_1727,,Passage du QUARTIER LATIN,Passage du QUARTIER LATIN,83600,Fréjus,"83, Var, Provence-Alpes-Côte d'Azur",83061,,,,ok
L'ECLAIRCIE EHPAD,17256,,Aurelien COURTOISIER,EHPAD,Centre-Est,03 84 53 04 00,RUE DE LA FRESSE,39300,EQUEVILLON,-,5.94081,46.759073,0.8859972176308539,,Rue de la Fresse 39300 Équevillon,street,39210_0005,,Rue de la Fresse,Rue de la Fresse,39300,Équevillon,"39, Jura, Bourgogne-Franche-Comté",39210,,,,ok
L'EHPAD LES CHATAIGNIERS,14889,,Herve QUELO,EHPAD,Centre Auvergne,04 75 94 05 40,Le Village,07530,ANTRAIGUES,-,4.358793,44.717323,0.9379345454545454,0.5540961616161615,Le Village Antraigues 07530 Vallées-d'Antraigues-Asperjoc,street,07011_B063,,Le Village Antraigues,Le Village Antraigues,07530,Vallées-d'Antraigues-Asperjoc,"07, Ardèche, Auvergne-Rhône-Alpes",07011,07011,Antraigues-sur-Volane,,ok
L'ENSOULEIADO EHPAD,11759,,Dorian SANCHEZ,EHPAD,Sud-Est,04 75 98 32 23,37 RUE DES COIGNETS,26790,TULETTE,-,4.931244,44.285094,0.896697217630854,,37 Rue des Coignets 26790 Tulette,housenumber,26357_0017_00037,37,37 Rue des Coignets,Rue des Coignets,26790,Tulette,"26, Drôme, Auvergne-Rhône-Alpes",26357,,,,ok
L'ENSOULEIADO EHPAD,14363,,Dorian SANCHEZ,EHPAD,Sud-Est,04 90 29 45 00,93 RUE HENRI CLEMENT,84420,PIOLENC,-,4.761445,44.18142,0.902794973262032,,93 Rue Henri Clément 84420 Piolenc,housenumber,84091_0050_00093,93,93 Rue Henri Clément,Rue Henri Clément,84420,Piolenc,"84, Vaucluse, Provence-Alpes-Côte d'Azur",84091,,,,ok
L'EOLIENNE EHPAD,3868,,Aurelien COURTOISIER,EHPAD,Centre-Est,04 72 24 41 00,"51, rue Jean Sellier",69520,GRIGNY,-,4.794137,45.612047,0.7580614076246334,,51 Rue Jean Sellier 69520 Grigny-sur-Rhône,housenumber,69096_0290_00051,51,51 Rue Jean Sellier,Rue Jean Sellier,69520,Grigny-sur-Rhône,"69, Rhône, Auvergne-Rhône-Alpes",69096,,,,ok
L'ERMITAGE EHPAD,8827,,Aurelien COURTOISIER,EHPAD,Centre-Est,04 50 70 25 25,26 CHEMIN DE LA RATTE,74200,THONON LES BAINS,-,6.484366,46.368863,0.9249231404958678,,26 Chemin de la Ratte 74200 Thonon-les-Bains,housenumber,74281_1230_00026,26,26 Chemin de la Ratte,Chemin de la Ratte,74200,Thonon-les-Bains,"74, Haute-Savoie, Auvergne-Rhône-Alpes",74281,,,,ok
L'ESCONDA EHPAD,7522,KORIAN,Aurelien COURTOISIER,EHPAD,Centre-Est,04 50 74 29 29,8 AVENUE DE THUYSET,74200,THONON LES BAINS,-,6.496384,46.382944,0.9191699567099565,0.69011413729128,8 Avenue de Thuyset 74200 Thonon-les-Bains,housenumber,74281_1421_00008,8,8 Avenue de Thuyset,Avenue de Thuyset,74200,Thonon-les-Bains,"74, Haute-Savoie, Auvergne-Rhône-Alpes",74281,,,,ok
L'HORIZON BLEU EHPAD,13425,,Aurore Auffret,EHPAD,Bretagne,02 96 63 68 58,2 Allée de l'horizon bleu,22430,ERQUY,-,-2.455954,48.62969,0.9007235872235871,0.7316472727272726,2 Allée de l'Horizon Bleu 22430 Erquy,housenumber,22054_0189_00002,2,2 Allée de l'Horizon Bleu,Allée de l'Horizon Bleu,22430,Erquy,"22, Côtes-d'Armor, Bretagne",22054,,,,ok
L'OASIS EHPAD,9133,,Export,EHPAD,Dom-Tom,05 96 63 21 42,Route de Balata,97200,FORT DE FRANCE,-,-61.080614,14.649655,0.6886485858585858,,Balata 97200 Fort-de-France,street,97209_erv46c,,Balata,Balata,97200,Fort-de-France,"972, Martinique",97209,,,,ok
