Désignation,Référence,Enseigne,Représentant,Famille,Secteur,Tél,adresse,code_postal,commune,TOPCLIENT,longitude,latitude,result_score,result_score_next,result_label,result_type,result_id,result_housenumber,result_name,result_street,result_postcode,result_city,result_context,result_citycode,result_oldcitycode,result_oldcity,result_district,result_status
++ L'OUSTALADO FOYER DE VIE,9011,ADAPEI,Dorian SANCHEZ,EMS,Sud-Est,04 66 85 67 28,1377 ROUTE DE MAZAC,30340,SALINDRES,-,4.138651,44.161486,0.9036864935064934,,1377 Route de Mazac 30340 Salindres,housenumber,30305_0562_01377,1377,1377 Route de Mazac,Route de Mazac,30340,Salindres,"30, Gard, Occitanie",30305,,,,ok
A FUNTANELLA FAM HD2A,9286,,Dorian SANCHEZ,EMS,Sud-Est,04 95 23 63 32,ROUTE D'ALATA,20000,AJACCIO,-,8.723545,41.93047,0.540829797979798,0.5012677134986225,Route du Vittulo 20000 Ajaccio,street,2A004_1410,,Route du Vittulo,Route du Vittulo,20000,Ajaccio,"2A, Corse-du-Sud, Corse",2A004,,,,ok
A SORTIR DE LA POSTE PHARMACIE NE PLUS UTILISER,3464,,Laurent DURIEUX,PHARMACIE,Val de Loire,,,17800,PONS,-,-0.559957,45.577836,0.9421381818181817,0.4882481818181818,Pons,municipality,17283,,Pons,,17800,Pons,"17, Charente-Maritime, Nouvelle-Aquitaine",17283,,,,ok
A.E.I.M. DE TOUL,6479,,Celine LUCION,EMS,Grand Nord-Est,03 83 62 65 50,4 Bis avenue du Président Kennedy,54200,TOUL,-,5.89688,48.693636,0.6359939393939394,0.4575581371087928,Allee du President Kennedy 54200 Toul,street,54528_1215,,Allee du President Kennedy,Allee du President Kennedy,54200,Toul,"54, Meurthe-et-Moselle, Grand Est",54528,,,,ok
ABBASSI PHARMACIE,17226,,Aurelien COURTOISIER,PHARMACIE,Centre-Est,04 72 37 54 00,61 Rte de Genas,69120,VAULX EN VELIN,-,4.924626,45.746889,0.8297962237762236,0.5323348484848485,61 Route de Genas 69120 Vaulx-en-Velin,housenumber,69256_0450_00061,61,61 Route de Genas,Route de Genas,69120,Vaulx-en-Velin,"69, Rhône, Auvergne-Rhône-Alpes",69256,,,,ok
ABCHIR PHARMACIE,13788,GIPHAR,Dorian SANCHEZ,PHARMACIE,Sud-Est,04 68 43 65 68,32 rue des Pradines,11200,FABREZAN,-,2.704501,43.142406,0.8971104278074866,,32 Rue des Pradines 11200 Fabrezan,housenumber,11132_m9ohbs_00032,32,32 Rue des Pradines,Rue des Pradines,11200,Fabrezan,"11, Aude, Occitanie",11132,,,,ok
AD SENIORS LYON CABINET INFIRMIER,13321,,Aurelien COURTOISIER,AMBULATOIRE,Centre-Est,09 72 89 11 43,28 rue Jules Brunuard,69007,LYON 07,-,4.856985,45.748786,0.813594025974026,0.4812220718816067,28 Rue Jules Brunard 69007 Lyon,housenumber,69387_3945_00028,28,28 Rue Jules Brunard,Rue Jules Brunard,69007,Lyon,"69, Rhône, Auvergne-Rhône-Alpes",69387,,,Lyon 7e Arrondissement,ok
ADAPEI 36 - ST MAUR,13335,ADAPEI,Laurent DURIEUX,EMS,Val de Loire,02 54 34 85 84,2 avenue de la Foret,36250,ST MAUR,-,1.649319,46.774644,0.7858404306220095,0.5963869287469287,2 Avenue de la Forêt 36250 Saint-Maur,housenumber,36202_0295_00002,2,2 Avenue de la Forêt,Avenue de la Forêt,36250,Saint-Maur,"36, Indre, Centre-Val de Loire",36202,36202,Saint-Maur,,ok
ADAPEI DES HAUTS DE CLAIREFONTAINE,11448,ADAPEI,Herve QUELO,EMS,Centre Auvergne,04 73 90 11 74,104 Rue de l'Oradou,63000,CLERMONT FERRAND,-,3.106656,45.770111,0.9397099567099565,0.7593221212121212,104 rue de l'Oradou 63000 Clermont-Ferrand,housenumber,63113_3190_00104,104,104 rue de l'Oradou,rue de l'Oradou,63000,Clermont-Ferrand,"63, Puy-de-Dôme, Auvergne-Rhône-Alpes",63113,,,,ok
ADAPEI DU PUY DE DOME,8871,ADAPEI,Herve QUELO,EMS,Centre Auvergne,,249 Rue de Blanzat,63000,CLERMONT FERRAND,-,3.086652,45.802414,0.8559310147991542,0.6476551239669421,249 rue de Blanzat 63100 Clermont-Ferrand,housenumber,63113_0595_00249,249,249 rue de Blanzat,rue de Blanzat,63100,Clermont-Ferrand,"63, Puy-de-Dôme, Auvergne-Rhône-Alpes",63113,,,,ok
ADSEA 05 MECS,18036,ADSEA,Dorian SANCHEZ,EMS,Sud-Est,04 92 57 90 67,LES TERRASSES DES GAUDIS,05400,LA ROCHE DES ARNAUDS,-,5.957889,44.559688,0.8434999465240641,,Terrasses des Gaudis 05400 La Roche-des-Arnauds,street,05123_0049,,Terrasses des Gaudis,Terrasses des Gaudis,05400,La Roche-des-Arnauds,"05, Hautes-Alpes, Provence-Alpes-Côte d'Azur",05123,,,,ok
ADSEA05 GAP FAM,16148,ADSEA,Dorian SANCHEZ,EMS,Sud-Est,04 92 44 15 23,72 rte des eyssagnieres,05000,GAP,-,6.051848,44.54171,0.8211748484848485,,72 Route des Eyssagnières 05000 Gap,housenumber,05061_0834_00072,72,72 Route des Eyssagnières,Route des Eyssagnières,05000,Gap,"05, Hautes-Alpes, Provence-Alpes-Côte d'Azur",05061,05061,Gap,,ok
ADSEA05 GAP FDV,11033,ADSEA,Dorian SANCHEZ,EMS,Sud-Est,04 92 51 27 20,72 ROUTE DES EYSSAGNIERES,05000,GAP,-,6.051848,44.54171,0.9207419480519481,,72 Route des Eyssagnières 05000 Gap,housenumber,05061_0834_00072,72,72 Route des Eyssagnières,Route des Eyssagnières,05000,Gap,"05, Hautes-Alpes, Provence-Alpes-Côte d'Azur",05061,05061,Gap,,ok
ADSEA05 GAP SAMA MNA,16672,ADSEA,Dorian SANCHEZ,EMS,Sud-Est,0787835271,Le grand champ,05000,ROMETTE,-,6.116815,44.579217,0.5379227272727273,0.5293645454545455,Route de Champ Forain (Romette) 05000 Gap,street,05061_ir0n1k,,Route de Champ Forain (Romette),Route de Champ Forain (Romette),05000,Gap,"05, Hautes-Alpes, Provence-Alpes-Côte d'Azur",05061,05125,Romette,,ok
AFEJI MAISON D'ENFANCE,17447,,Celine LUCION,EMS,Grand Nord-Est,03.27.56.30.94,108 AVEUE DE CONDE,59300,VALENCIENNES,-,3.513753,50.370626,0.8536371561771561,,108 Avenue de Condé 59300 Valenciennes,housenumber,59606_0940_00108,108,108 Avenue de Condé,Avenue de Condé,59300,Valenciennes,"59, Nord, Hauts-de-France",59606,,,,ok
AGEI BEZOUOTTE FOYER,2253,,Aurelien COURTOISIER,EMS,Centre-Est,03 80 36 59 59,Rue de la forge,21310,BEZOUOTTE,-,5.330572,47.383365,0.8834807917888562,,Rue de la Forge 21310 Bézouotte,street,21072_0055,,Rue de la Forge,Rue de la Forge,21310,Bézouotte,"21, Côte-d'Or, Bourgogne-Franche-Comté",21072,,,,ok
AGEI RENEVE,2164,,Aurelien COURTOISIER,EMS,Centre-Est,03 80 47 71 31,rue de la fontaine,21310,RENEVE,-,5.398868,47.409629,0.8798571554252198,0.5821872727272727,Rue de la Fontaine 21310 Renève,street,21522_0070,,Rue de la Fontaine,Rue de la Fontaine,21310,Renève,"21, Côte-d'Or, Bourgogne-Franche-Comté",21522,,,,ok
ALAPH LE HAMEAU DE LA PIERRE LONGUE,8496,,Aurore Auffret,EMS,Bretagne,02 99 09 92 78,26 Rue de Montfort,35750,IFFENDIC,-,-2.030341,48.129642,0.9062463085399449,,26 Rue de Montfort 35750 Iffendic,housenumber,35133_0037_00026,26,26 Rue de Montfort,Rue de Montfort,35750,Iffendic,"35, Ille-et-Vilaine, Bretagne",35133,,,,ok
ALTER EGAUX LA SENTINELLE,5527,,Celine LUCION,EMS,Grand Nord-Est,03 27 47 48 06,126 RUE LEON GAMBETTA,59174,LA SENTINELLE,-,3.490685,50.348032,0.9132350110864744,,126 Rue Leon Gambetta 59174 La Sentinelle,housenumber,59564_0260_00126,126,126 Rue Leon Gambetta,Rue Leon Gambetta,59174,La Sentinelle,"59, Nord, Hauts-de-France",59564,,,,ok
AMAVITA LA POSTE PHARMACIE,2546,,Export,PHARMACIE,Export,0041 588 513 036,GALENICARE SA,2400,LE LOCLE,-,,,,,,,,,,,,,,,,,,not-found
AMAVITA PHARMACIE,2107,,Export,PHARMACIE,Export,0041 58 851 30 44,Galenicare SA,2900,PORRENTRUY,-,2.002077,46.939444,0.3766712285012285,0.369426683046683,Rue de Porrentruy 36100 Issoudun,street,36088_2470,,Rue de Porrentruy,Rue de Porrentruy,36100,Issoudun,"36, Indre, Centre-Val de Loire",36088,,,,ok
ANDREIN-ECHEVERRIA PHARMACIE,3408,,Caroline VILLEMUR,PHARMACIE,Sud-Ouest,05 59 29 60 35,"7, place Verdun",64240,HASPARREN,-,-1.305545,43.383992,0.8186434986225896,,7 Place de Verdun 64240 Hasparren,housenumber,64256_0235_00007,7,7 Place de Verdun,Place de Verdun,64240,Hasparren,"64, Pyrénées-Atlantiques, Nouvelle-Aquitaine",64256,,,,ok
ANRAS ECHAPEE VERTE,17740,,Caroline VILLEMUR,EMS,Sud-Ouest,05 63 48 75 60,78 avenue du Loirat,81000,ALBI,-,2.156026,43.932049,0.9015721212121212,,78 Avenue du Loirat 81000 Albi,housenumber,81004_2180_00078,78,78 Avenue du Loirat,Avenue du Loirat,81000,Albi,"81, Tarn, Occitanie",81004,,,,ok
ANSIAD,16753,,IDF,AMBULATOIRE,Ile de France,01 46 40 12 74,2 RUE DE L'EGLISE,92200,NEUILLY SUR SEINE,-,2.262468,48.884489,0.9254531929046561,0.6682169696969696,2 Rue de l'Eglise 92200 Neuilly-sur-Seine,housenumber,92051_3130_00002,2,2 Rue de l'Eglise,Rue de l'Eglise,92200,Neuilly-sur-Seine,"92, Hauts-de-Seine, Île-de-France",92051,,,,ok
APAHJ FOYER D'HEBERGEMENT FOYER,15637,APAJH,Aurelien COURTOISIER,EMS,Centre-Est,04 79 69 08 87,11 RUE DANIEL ROPS,73160,COGNIN,-,5.896255,45.567935,0.8943580645161289,,11 Rue daniel rops 73160 Cognin,housenumber,73087_0180_00011,11,11 Rue daniel rops,Rue daniel rops,73160,Cognin,"73, Savoie, Auvergne-Rhône-Alpes",73087,,,,ok
APAJH,12480,,Celine LUCION,EMS,Grand Nord-Est,03 44 03 03 61,11 RUE VIVALDI,60930,BAILLEUL SUR THERAIN,-,2.21911,49.387781,0.9116495565410199,,11 Rue Vivaldi 60930 Bailleul-sur-Thérain,housenumber,60041_0160_00011,11,11 Rue Vivaldi,Rue Vivaldi,60930,Bailleul-sur-Thérain,"60, Oise, Hauts-de-France",60041,,,,ok
APAJH FOYER DE VIE FOYER,15636,APAJH,Aurelien COURTOISIER,EMS,Centre-Est,04 79 69 08 87,11 RUE DANIELSROPS,73160,COGNIN,-,5.896255,45.567935,0.7877198347107438,0.5116624675324675,11 Rue daniel rops 73160 Cognin,housenumber,73087_0180_00011,11,11 Rue daniel rops,Rue daniel rops,73160,Cognin,"73, Savoie, Auvergne-Rhône-Alpes",73087,,,,ok
APEI LAFAYETTE FOYER,17279,,Aurelien COURTOISIER,EMS,Centre-Est,03 83 47 46 83,398 AV PIERRE MENDES FRANCE,39000,LONS LE SAUNIER,-,5.564992,46.676749,0.8305589562289561,0.7143053246753246,398 Avenue Pierre Mendès-France 39000 Lons-le-Saunier,housenumber,39300_0794_00398,398,398 Avenue Pierre Mendès-France,Avenue Pierre Mendès-France,39000,Lons-le-Saunier,"39, Jura, Bourgogne-Franche-Comté",39300,,,,ok
APF PLATEFORME DE FEYTIAT,14212,,Herve QUELO,EMS,Centre Auvergne,05 55 00 20 13,15 rue de Bourgogne,87220,FEYTIAT,-,1.329893,45.811536,0.9009853994490358,0.5606405128205129,15 Rue de Bourgogne 87220 Feytiat,housenumber,87065_0066_00015,15,15 Rue de Bourgogne,Rue de Bourgogne,87220,Feytiat,"87, Haute-Vienne, Nouvelle-Aquitaine",87065,,,,ok
ARANDEL PHARMACIE - COMPTOIR ONLY,12444,AELIA,Laurent DURIEUX,PHARMACIE,Val de Loire,05 49 53 08 97,1 rue du stade,86240,FONTAINE LE COMTE,-,0.262356,46.531544,0.9077594736842104,0.5108195577395577,1 Rue du Stade 86240 Fontaine-le-Comte,housenumber,86100_2220_00001,1,1 Rue du Stade,Rue du Stade,86240,Fontaine-le-Comte,"86, Vienne, Nouvelle-Aquitaine",86100,,,,ok
ARRAYO MAPHA ADAPEI,17879,ADAPEI,Caroline VILLEMUR,EMS,Sud-Ouest,05 59 65 33 02,113 chemin de Bellevue,64300,BAIGTS DE BEARN,-,-0.840324,43.534262,0.8444351239669421,,113 Chemin Bellevue 64300 Baigts-de-Béarn,housenumber,64087_0135_00113,113,113 Chemin Bellevue,Chemin Bellevue,64300,Baigts-de-Béarn,"64, Pyrénées-Atlantiques, Nouvelle-Aquitaine",64087,,,,ok
ARTES CHAMBORIGAUD MAS,9010,,Dorian SANCHEZ,EMS,Sud-Est,04 66 61 48 64,RUE BASSE DE LA JASSE,30530,CHAMBORIGAUD,-,4.000985,44.297384,0.9035572727272726,,Rue Basse de la Jasse 30530 Chamborigaud,street,30080_0007,,Rue Basse de la Jasse,Rue Basse de la Jasse,30530,Chamborigaud,"30, Gard, Occitanie",30080,,,,ok
ARVE ET SALEVE PHARMACIE,17916,,Aurelien COURTOISIER,PHARMACIE,Centre-Est,04 50 85 06 13,141 ROUTE DE L'EGLISE,74930,PERS JUSSY,-,6.265932,46.108037,0.9104512918660287,0.6316587714987715,141 Route de l'église 74930 Pers-Jussy,housenumber,74211_0370_00141,141,141 Route de l'église,Route de l'église,74930,Pers-Jussy,"74, Haute-Savoie, Auvergne-Rhône-Alpes",74211,,,,ok
ASSOCIATION ENTRAIDE UNIVERSITAIRE,14718,,Herve QUELO,EMS,Centre Auvergne,04 70 98 64 64,23-25 avenue Pierre Coulon,03200,VICHY,-,3.416438,46.128533,0.8400882296650718,,25 Avenue Pierre Coulon 03200 Vichy,housenumber,03310_2447_00025,25,25 Avenue Pierre Coulon,Avenue Pierre Coulon,03200,Vichy,"03, Allier, Auvergne-Rhône-Alpes",03310,,,,ok
ASSOCIATION LARNAY SAGESSE,2985,,Laurent DURIEUX,EMS,Val de Loire,05 49 58 46 99,5 rue charles Chaubier de Larnay,86580,BIARD,-,0.30123,46.59715,0.9021113223140496,,5 Rue Charles Chaubier de Larnay 86580 Biard,housenumber,86027_0320_00005,5,5 Rue Charles Chaubier de Larnay,Rue Charles Chaubier de Larnay,86580,Biard,"86, Vienne, Nouvelle-Aquitaine",86027,,,,ok
ASSOCIATION REBONDS,17176,,Laurent DURIEUX,EMS,Val de Loire,05.49.80.65.80,"25, av. du Général Marigny",79140,CERIZAY,-,-0.671682,46.823867,0.7897795348837209,,25 Avenue du Général Marigny 79140 Cerizay,housenumber,79062_0340_00025,25,25 Avenue du Général Marigny,Avenue du Général Marigny,79140,Cerizay,"79, Deux-Sèvres, Nouvelle-Aquitaine",79062,,,,ok
ASSOCIATION SAINT VINCENT DE PAUL,0368,,Celine LUCION,EMS,Grand Nord-Est,03 23 62 35 25,5a Rue Paul Doumer,02100,ST QUENTIN,-,3.287906,49.850063,0.732751585081585,,Rue Paul Doumer 02100 Saint-Quentin,street,02691_4370,,Rue Paul Doumer,Rue Paul Doumer,02100,Saint-Quentin,"02, Aisne, Hauts-de-France",02691,,,,ok
ASSOCIATION YVES LEFEVBRE FOYER,16594,,Celine LUCION,EMS,Grand Nord-Est,03 22 83 55 32,3 RUE DU 8 MAI 1945,80300,ALBERT,-,2.654508,50.000824,0.9012963636363636,,3 Rue du 8 Mai 1945 80300 Albert,housenumber,80016_0677_00003,3,3 Rue du 8 Mai 1945,Rue du 8 Mai 1945,80300,Albert,"80, Somme, Hauts-de-France",80016,,,,ok
ASVS LES COMPAGNONS,3523,,Niels COLLEU,EMS,Normandie,,,14400,BAYEUX,-,-0.702334,49.278188,0.9470690909090909,0.5435972727272728,Bayeux,municipality,14047,,Bayeux,,14400,Bayeux,"14, Calvados, Normandie",14047,,,,ok
ATLANTIS PHARMACIE,0576,PHARMACTIVE,Caroline VILLEMUR,PHARMACIE,Sud-Ouest,05 56 12 52 35,Centre Commercial Intermarché,33700,MERIGNAC,X,-3.225893,47.736999,0.6474827667984189,0.40825499142367067,Centre Commercial Intermarché 56700 Merlevenez,locality,56130_owtbuf,,Centre Commercial Intermarché,,56700,Merlevenez,"56, Morbihan, Bretagne",56130,,,,ok
ATRE DU VAL DE FENSCH,0421,,Celine LUCION,EMS,Grand Nord-Est,03 82 84 98 98,29-31 rue Jean Burger,57650,FONTOY,X,6.00098,49.357698,0.8290992513368983,,31 Rue Jean Burger 57650 Fontoy,housenumber,57226_0320_00031,31,31 Rue Jean Burger,Rue Jean Burger,57650,Fontoy,"57, Moselle, Grand Est",57226,,,,ok
AUBIGNOISE PHARMACIE - COMPTOIR ONLY,0991,,Celine LUCION,PHARMACIE,Grand Nord-Est,03 21 59 09 75,"1, Rue Emile Delombre",62690,AUBIGNY EN ARTOIS,-,2.591658,50.351331,0.9107867768595042,,1 Rue Émile Delombre 62690 Aubigny-en-Artois,housenumber,62045_0120_00001,1,1 Rue Émile Delombre,Rue Émile Delombre,62690,Aubigny-en-Artois,"62, Pas-de-Calais, Hauts-de-France",62045,,,,ok
AUDIN PHARMACIE (GIPHAR),9462,GIPHAR,Herve QUELO,PHARMACIE,Centre Auvergne,04 71 60 01 45,6 Place de la Liberté,15100,ST FLOUR,-,3.101732,45.033759,0.8027981818181816,,6 Place de la Liberté 15100 Saint-Flour,housenumber,15187_0430_00006,6,6 Place de la Liberté,Place de la Liberté,15100,Saint-Flour,"15, Cantal, Auvergne-Rhône-Alpes",15187,,,,ok
AUDRAIN-ROCHARD PHARMACIE PAS FDP 2+2,4881,,IDF,PHARMACIE,Ile de France,01 46 77 33 08,66 Rue Marcel Grosmenil,94800,VILLEJUIF,-,2.354568,48.796363,0.9265235897435895,,66 Rue Marcel Grosménil 94800 Villejuif,housenumber,94076_6114_00066,66,66 Rue Marcel Grosménil,Rue Marcel Grosménil,94800,Villejuif,"94, Val-de-Marne, Île-de-France",94076,,,,ok
AUZITS FOYER DE VIE,18025,,Dorian SANCHEZ,EMS,Sud-Est,05 65 43 76 50,122 RUE SENTEUL,12390,AUZITS,-,2.323597,44.505269,0.8027533431085043,,122 Rue de Senteul 12390 Auzits,housenumber,12016_0300_00122,122,122 Rue de Senteul,Rue de Senteul,12390,Auzits,"12, Aveyron, Occitanie",12016,,,,ok
AZEMA PHARMACIE,3733,,Caroline VILLEMUR,PHARMACIE,Sud-Ouest,05 63 74 01 77,19 allée du chateau,81260,BRASSAC,-,2.498677,43.630186,0.9019808539944904,0.5200027272727272,19 Allée du Château 81260 Brassac,housenumber,81037_0044_00019,19,19 Allée du Château,Allée du Château,81260,Brassac,"81, Tarn, Occitanie",81037,,,,ok
BAGATELLE HOPITAL-MULTI PUI,4309,,Caroline VILLEMUR,HÔPITAUX ET CLINIQUES ,Sud-Ouest,05 57 12 34 56,203 route de Toulouse,33401,TALENCE CEDEX,-,-0.573963,44.808514,0.7548134199134198,0.4456704465709728,203 Route de Toulouse 33400 Talence,housenumber,33522_2530_00203,203,203 Route de Toulouse,Route de Toulouse,33400,Talence,"33, Gironde, Nouvelle-Aquitaine",33522,,,,ok
BAIGURA PHARMACIE (EX 0931),18295,GIPHAR,Caroline VILLEMUR,PHARMACIE,Sud-Ouest,05 59 37 60 25,162 Route d'Helette,64780,IRISSARRY,-,-1.225744,43.261285,0.8972964935064934,,162 Route d'Hélette 64780 Irissarry,housenumber,64273_0037_00162,162,162 Route d'Hélette,Route d'Hélette,64780,Irissarry,"64, Pyrénées-Atlantiques, Nouvelle-Aquitaine",64273,,,,ok
BALANANT PHARMACIE,5856,,Herve QUELO,PHARMACIE,Centre Auvergne,04 73 85 60 15,"11, rue Jean D'Arvor",63330,PIONSAT,-,2.696318,46.111745,0.8879153994490359,,11 Rue Jean d’Arvor 63330 Pionsat,housenumber,63281_0019_00011,11,11 Rue Jean d’Arvor,Rue Jean d’Arvor,63330,Pionsat,"63, Puy-de-Dôme, Auvergne-Rhône-Alpes",63281,,,,ok
BALARD PHARMACIE,3544,,Dorian SANCHEZ,PHARMACIE,Sud-Est,05 65 70 13 01,231 avenue du Centre,12160,BARAQUEVILLE,-,2.433622,44.277186,0.9118117715617715,0.6693438095238095,231 Avenue du Centre 12160 Baraqueville,housenumber,12056_0017_00231,231,231 Avenue du Centre,Avenue du Centre,12160,Baraqueville,"12, Aveyron, Occitanie",12056,,,,ok
BALBAL MARINELLO,15739,,Celine LUCION,AMBULATOIRE,Grand Nord-Est,0670144473,10 RUE DES VERGERS,68100,MULHOUSE,-,7.338208,47.753024,0.918647217630854,,10 Rue des Vergers 68100 Mulhouse,housenumber,68224_7540_00010,10,10 Rue des Vergers,Rue des Vergers,68100,Mulhouse,"68, Haut-Rhin, Grand Est",68224,,,,ok
BARONI LOUVEL PHARMACIE - COMPTOIR ONLY,1830,,Celine LUCION,PHARMACIE,Grand Nord-Est,02 35 67 23 33,"5 b, Avenue Jean Lagarrigue",76530,GRAND COURONNE,-,1.023414,49.349251,0.8743475757575757,,5b Avenue Jean Lagarrigue 76530 Grand-Couronne,housenumber,76319_0400_00005_b,5b,5b Avenue Jean Lagarrigue,Avenue Jean Lagarrigue,76530,Grand-Couronne,"76, Seine-Maritime, Normandie",76319,,,,ok
BARRES PHARMACIE,3790,,Herve QUELO,PHARMACIE,Centre Auvergne,04 70 90 71 67,40 rue des Fosses,03450,EBREUIL,-,3.086071,46.115235,0.8969944281524925,,40 Rue des Fossés 03450 Ébreuil,housenumber,03107_0220_00040,40,40 Rue des Fossés,Rue des Fossés,03450,Ébreuil,"03, Allier, Auvergne-Rhône-Alpes",03107,,,,ok
BARRIERE ET ASSOCIES PHARMACIE,10187,,Aurelien COURTOISIER,PHARMACIE,Centre-Est,03 80 95 01 82,20 rue Anatole,21120,IS SUR TILLE,-,5.11517,47.521588,0.7942734731934731,,20 Rue Anatole France 21120 Is-sur-Tille,housenumber,21317_0150_00020,20,20 Rue Anatole France,Rue Anatole France,21120,Is-sur-Tille,"21, Côte-d'Or, Bourgogne-Franche-Comté",21317,,,,ok
BASSE NAVARRE PHARMACIE,4082,PHARMACORP,Caroline VILLEMUR,PHARMACIE,Sud-Ouest,05 59 65 70 54,12 rue Thiers,64120,ST PALAIS,-,-1.033556,43.328021,0.7637516253443525,,12 Rue Thiers 64120 Saint-Palais,housenumber,64493_0505_00012,12,12 Rue Thiers,Rue Thiers,64120,Saint-Palais,"64, Pyrénées-Atlantiques, Nouvelle-Aquitaine",64493,,,,ok
BEAUDUFE PHARMACIE,18016,,Laurent DURIEUX,PHARMACIE,Val de Loire,05 55 85 02 15,45 Av. Edmond Michelet,19240,VARETZ,-,1.445924,45.195907,0.7728716317016315,,45 Avenue Edmond Michelet 19240 Varetz,housenumber,19278_0023_00045,45,45 Avenue Edmond Michelet,Avenue Edmond Michelet,19240,Varetz,"19, Corrèze, Nouvelle-Aquitaine",19278,,,,ok
BEAUSEJOUR GUYET PHARMACIE au 01-09-2025 (ex 2000),18689,LAFAYETTE,Caroline VILLEMUR,PHARMACIE,Sud-Ouest,05 56 91 81 70,Giratoire de Beauséjour,33450,SAINT-LOUBES,-,-0.464228,44.92627,0.6382721212121212,,Chemin de Beausejour 33450 Saint-Loubès,street,33433_ilk686,,Chemin de Beausejour,Chemin de Beausejour,33450,Saint-Loubès,"33, Gironde, Nouvelle-Aquitaine",33433,,,,ok
BEAUSEJOUR PHARMACIE (new 18689 au 01-09-2025),2000,LAFAYETTE,Caroline VILLEMUR,PHARMACIE,Sud-Ouest,05 56 91 81 70,Rond Point Beau Séjour,33450,SAINT-LOUBES,-,-0.464228,44.92627,0.5602418181818182,0.4295270053475935,Chemin de Beausejour 33450 Saint-Loubès,street,33433_ilk686,,Chemin de Beausejour,Chemin de Beausejour,33450,Saint-Loubès,"33, Gironde, Nouvelle-Aquitaine",33433,,,,ok
BELHOMME PHARMACIE,0927,,Caroline VILLEMUR,PHARMACIE,Sud-Ouest,05 56 05 02 47,"62, Avenue de Montesquieu",33160,ST MEDARD EN JALLES,-,-0.716988,44.8955,0.8036080134680134,,62 Avenue Montesquieu 33160 Saint-Médard-en-Jalles,housenumber,33449_0860_00062,62,62 Avenue Montesquieu,Avenue Montesquieu,33160,Saint-Médard-en-Jalles,"33, Gironde, Nouvelle-Aquitaine",33449,,,,ok
BELLEPIERRE PHARMACIE,11567,,Export,PHARMACIE,Dom-Tom,0262 98 07 83,41 Allée des Topazes,97400,SAINT DENIS,-,55.444912,-20.891905,0.9358131100478468,,41 Allée des Topazes 97400 Saint-Denis,housenumber,97411_1397_00041,41,41 Allée des Topazes,Allée des Topazes,97400,Saint-Denis,"974, La Réunion",97411,,,,ok
BELLES TERRES RESIDENCE,5278,Association des Paralysés de France,Dorian SANCHEZ,EMS,Sud-Est,04 67 98 50 07,142 RUE DU DOCTEUR CELESTE BRINGER,34500,BEZIERS,-,3.256261,43.365227,0.8657575757575757,,142 Rue Docteur Celeste Bringer 34500 Béziers,housenumber,34032_8135_00142,142,142 Rue Docteur Celeste Bringer,Rue Docteur Celeste Bringer,34500,Béziers,"34, Hérault, Occitanie",34032,,,,ok
BENTOLILA PHARMACIE,11252,,Caroline VILLEMUR,PHARMACIE,Sud-Ouest,05 59 45 40 34,32 avenue du Général de Gaulle,40530,LABENNE,-,-1.428623,43.588555,0.8628596694214875,,32 Avenue General de Gaulle 40530 Labenne,housenumber,40133_fxiujz_00032,32,32 Avenue General de Gaulle,Avenue General de Gaulle,40530,Labenne,"40, Landes, Nouvelle-Aquitaine",40133,,,,ok
BENU BEL-AIR PHARMACIE,4496,,Export,PHARMACIE,Export,0041 24 425 24 21,Place Bel-Air 2,1400,YVERDON,-,,,,,,,,,,,,,,,,,,not-found
BERNARD QUETIN FAM,14282,,Aurelien COURTOISIER,EMS,Centre-Est,04 37 05 04 20,RUE DE LA PAIX,38110,LA TOUR DU PIN,-,5.440276,45.577312,0.9059492207792207,,Rue de la Paix 38110 La Tour-du-Pin,street,38509_0677,,Rue de la Paix,Rue de la Paix,38110,La Tour-du-Pin,"38, Isère, Auvergne-Rhône-Alpes",38509,,,,ok
BERTHELOT PHARMACIE (arrêt PDA),3000,,Herve QUELO,PHARMACIE,Centre Auvergne,04 73 36 30 60,34 boulevard Berthelot,63000,CLERMONT FERRAND,-,3.071993,45.779137,0.9331050505050505,,34 boulevard Berthelot 63000 Clermont-Ferrand,housenumber,63113_0560_00034,34,34 boulevard Berthelot,boulevard Berthelot,63000,Clermont-Ferrand,"63, Puy-de-Dôme, Auvergne-Rhône-Alpes",63113,,,,ok
BIGNON PHARMACIE,2958,,Laurent DURIEUX,PHARMACIE,Val de Loire,05 53 50 00 73,2 rue Cornarie,24120,TERRASSON LA VILLEDIEU,-,1.305492,45.126179,0.6237236920222634,0.6227636920222634,2 Rue Haute 24120 Terrasson-Lavilledieu,housenumber,24547_0271_00002,2,2 Rue Haute,Rue Haute,24120,Terrasson-Lavilledieu,"24, Dordogne, Nouvelle-Aquitaine",24547,,,,ok
BITAUD PHARMACIE (EX 9195),14253,,Dorian SANCHEZ,PHARMACIE,Sud-Est,05 65 99 69 16,4 Avenue de Saint Affrique,12380,ST SERNIN SUR RANCE,-,2.603371,43.884887,0.8386336363636363,,4 Avenue de Saint-affrique 12380 Saint-Sernin-sur-Rance,housenumber,12248_0090_00004,4,4 Avenue de Saint-affrique,Avenue de Saint-affrique,12380,Saint-Sernin-sur-Rance,"12, Aveyron, Occitanie",12248,,,,ok
BLANCHARD PHIE,6535,,Dorian SANCHEZ,PHARMACIE,Sud-Est,04 68 82 01 09,7 Av. Castellane,66660,PORT VENDRES,-,3.106058,42.515117,0.7709025407925406,,7 Avenue Castellane 66660 Port-Vendres,housenumber,66148_0100_00007,7,7 Avenue Castellane,Avenue Castellane,66660,Port-Vendres,"66, Pyrénées-Orientales, Occitanie",66148,,,,ok
BLEAS GERMAN PHARMACIE (COMPTOIR ONLY),3202,UNIVERS PHARMACIE,Niels COLLEU,PHARMACIE,Normandie,02 31 97 20 32,26 Bd Paul Doumer,14780,LION SUR MER,-,-0.317873,49.301652,0.7295081818181818,,26 Boulevard Paul Doumer 14780 Lion-sur-Mer,housenumber,14365_0960_00026,26,26 Boulevard Paul Doumer,Boulevard Paul Doumer,14780,Lion-sur-Mer,"14, Calvados, Normandie",14365,,,,ok
BLOIS PHARMACIE,2754,,Herve QUELO,PHARMACIE,Centre Auvergne,04 70 05 21 08,40 avenue du 4 septembre,03630,DESERTINES,-,2.615532,46.355809,0.919132283813747,,40 Avenue du 4 Septembre 03630 Désertines,housenumber,03098_1060_00040,40,40 Avenue du 4 Septembre,Avenue du 4 Septembre,03630,Désertines,"03, Allier, Auvergne-Rhône-Alpes",03098,,,,ok
BLOSSAC DARNICHE,6820,GIPHAR,Laurent DURIEUX,PHARMACIE,Val de Loire,05 49 21 03 35,53 BLD DE BLOSSAC,86100,CHATELLERAULT,X,0.5449,46.8167,0.7312548484848483,,53 Boulevard de Blossac 86100 Châtellerault,housenumber,86066_0620_00053,53,53 Boulevard de Blossac,Boulevard de Blossac,86100,Châtellerault,"86, Vienne, Nouvelle-Aquitaine",86066,,,,ok
BOIS GENTIL SAUVABLIN,17767,,Export,EMS,Export,,ROUTE DU PAVEMENT 20,1018,LAUSANNE,-,,,,,,,,,,,,,,,,,,not-found
BON PASTEUR FOYER DE VIE ADGESSA,11427,ADGESSA,Caroline VILLEMUR,EMS,Sud-Ouest,05 56 71 52 80,ADGESSA,33540,SAINT-BRICE,-,-0.1428,44.697879,0.6272433333333333,0.5521928739002933,Saint-Brice,municipality,33379,,Saint-Brice,,33540,Saint-Brice,"33, Gironde, Nouvelle-Aquitaine",33379,,,,ok
BORRELLY TAVEL PHARMACIE,11408,,Dorian SANCHEZ,PHARMACIE,Sud-Est,,ROUTE COMMANDERIE,30126,TAVEL,-,4.706356,44.010739,0.7484341558441558,,Route de la Commanderie 30126 Tavel,street,30326_0042,,Route de la Commanderie,Route de la Commanderie,30126,Tavel,"30, Gard, Occitanie",30326,,,,ok
BOUCHER PHARMACIE,15894,,Laurent DURIEUX,PHARMACIE,Val de Loire,05 53 07 55 11,632 Avenue du Manoire,24330,ST PIERRE DE CHIGNAC,-,0.857715,45.122709,0.8315569230769231,0.41420009222661397,632 Avenue du Manoire 24330 Saint-Pierre-de-Chignac,housenumber,24484_0650_00632,632,632 Avenue du Manoire,Avenue du Manoire,24330,Saint-Pierre-de-Chignac,"24, Dordogne, Nouvelle-Aquitaine",24484,,,,ok
BOUDET PHARMACIE (ex 3789),3492,,Herve QUELO,PHARMACIE,Centre Auvergne,04 73 85 06 63,206 avenue Jean Jaurès,63700,ST ELOY LES MINES,-,2.834139,46.160946,0.7211365734265733,0.5871816883116883,206 Rue Jean Jaurès 63700 Saint-Éloy-les-Mines,housenumber,63338_0450_00206,206,206 Rue Jean Jaurès,Rue Jean Jaurès,63700,Saint-Éloy-les-Mines,"63, Puy-de-Dôme, Auvergne-Rhône-Alpes",63338,,,,ok
BOULANGER PHARMACIE,16550,,Celine LUCION,PHARMACIE,Grand Nord-Est,03 20 75 32 30,45 RUE JOSEPH LEROY,59115,LEERS,-,3.243191,50.679479,0.9064817008797652,,45 Rue Joseph Leroy 59115 Leers,housenumber,59339_0180_00045,45,45 Rue Joseph Leroy,Rue Joseph Leroy,59115,Leers,"59, Nord, Hauts-de-France",59339,,,,ok
BOURDELEIX PHARMACIE,4222,,Dorian SANCHEZ,PHARMACIE,Sud-Est,04 94 97 13 57,2 avenue du Général Leclerc,83990,ST TROPEZ,-,6.63483,43.268979,0.7683845841392649,,2 avenue général leclerc 83990 Saint-Tropez,housenumber,83119_0490_00002,2,2 avenue général leclerc,avenue général leclerc,83990,Saint-Tropez,"83, Var, Provence-Alpes-Côte d'Azur",83119,,,,ok
BOUROUAHA CABINET INFIRMIER,17489,,Aurelien COURTOISIER,AMBULATOIRE,Centre-Est,06 50 42 95 55,2 RUE DES MARAICHERS,69120,VAULX EN VELIN,-,4.909939,45.787483,0.9186013747228381,,2 Rue des Maraîchers 69120 Vaulx-en-Velin,housenumber,69256_0719_00002,2,2 Rue des Maraîchers,Rue des Maraîchers,69120,Vaulx-en-Velin,"69, Rhône, Auvergne-Rhône-Alpes",69256,,,,ok
BOUYSSIE PHARMACIE,3135,,Caroline VILLEMUR,PHARMACIE,Sud-Ouest,05 63 56 40 28,Grand Rue,81340,VALENCE D'ALBIGEOIS,-,2.405585,44.020069,0.9051201298701298,0.6692348663101604,Grand'Rue 81340 Valence-d'Albigeois,street,81308_0031,,Grand'Rue,Grand'Rue,81340,Valence-d'Albigeois,"81, Tarn, Occitanie",81308,,,,ok
BRASSALAY MAISON D'ENFANTS,13647,,Caroline VILLEMUR,EMS,Sud-Ouest,05 59 69 15 62,1 Lotissement de la Plaine,64300,BIRON,-,-0.744449,43.465099,0.7063237320574162,0.44864181818181814,1 Lot de la Plaine 64300 Biron,housenumber,64131_a025_00001,1,1 Lot de la Plaine,Lot de la Plaine,64300,Biron,"64, Pyrénées-Atlantiques, Nouvelle-Aquitaine",64131,,,,ok
BREHANT PHARMACIE VENDUE 01-03-23 (NEW 16501),7504,A2VP,Caroline VILLEMUR,PHARMACIE,Sud-Ouest,05 58 04 18 18,23 place Aristid Briant,40110,MORCENX,-,-0.910617,44.033035,0.6542342424242423,,23 Place Aristide Briand 40110 Morcenx-la-Nouvelle,housenumber,40197_0020_00023,23,23 Place Aristide Briand,Place Aristide Briand,40110,Morcenx-la-Nouvelle,"40, Landes, Nouvelle-Aquitaine",40197,40197,Morcenx,,ok
BREVIERE PHARMACIE,3839,PHARMAVIE,Laurent DURIEUX,PHARMACIE,Val de Loire,05 45 39 55 40,54 avenue de la République,16260,CHASSENEUIL SUR BONNIEURE,-,0.450724,45.825117,0.9314938557993729,,54 Avenue de la Republique 16260 Chasseneuil-sur-Bonnieure,housenumber,16085_0250_00054,54,54 Avenue de la Republique,Avenue de la Republique,16260,Chasseneuil-sur-Bonnieure,"16, Charente, Nouvelle-Aquitaine",16085,,,,ok
BRILLEAUD PHARMACIE,16876,PHARMACTIVE,Caroline VILLEMUR,PHARMACIE,Sud-Ouest,05 63 98 01 15,88 BIS CARNOT,81270,LABASTIDE ROUAIROUX,-,2.639998,43.476307,0.696680303030303,0.3275439160839161,88 Boulevard Carnot 81270 Labastide-Rouairoux,housenumber,81115_0080_00088,88,88 Boulevard Carnot,Boulevard Carnot,81270,Labastide-Rouairoux,"81, Tarn, Occitanie",81115,,,,ok
BROSSARD PHARMACIE,8428,,Aurore Auffret,PHARMACIE,Bretagne,02 40 75 69 22,75 Rue de la commande de 1871,44400,REZE,-,-1.551435,47.187961,0.7833769767441859,,75 Rue de la Commune de 1871 44400 Rezé,housenumber,44143_0994_00075,75,75 Rue de la Commune de 1871,Rue de la Commune de 1871,44400,Rezé,"44, Loire-Atlantique, Pays de la Loire",44143,,,,ok
BURCET GISELE PHARMACIE,2127,GIPHAR,Dorian SANCHEZ,PHARMACIE,Sud-Est,04 68 39 71 52,"8, Place du Foirail",66230,PRATS DE MOLLO LA PRESTE,-,2.480741,42.404074,0.8563845454545455,0.6697897306397306,8 Place du Foiral 66230 Prats-de-Mollo-la-Preste,housenumber,66150_othz6e_00008,8,8 Place du Foiral,Place du Foiral,66230,Prats-de-Mollo-la-Preste,"66, Pyrénées-Orientales, Occitanie",66150,,,,ok
BYRON,17765,,Export,EMS,Export,,AVENUE BYRON 2,1844,VILLENEUVE,-,,,,,,,,,,,,,,,,,,not-found
C.A.L.M.E,16892,A2VP,Laurent DURIEUX,EMS,Val de Loire,02.54.31.56.00,8 RUE DE VALLIERES,36120,ARDENTES,-,1.827572,46.738109,0.8977026721763085,,8 Rue de Vallières 36120 Ardentes,housenumber,36005_0621_00008,8,8 Rue de Vallières,Rue de Vallières,36120,Ardentes,"36, Indre, Centre-Val de Loire",36005,,,,ok
C.M.E. MILLE SOLEILS,8755,,Aurelien COURTOISIER,EMS,Centre-Est,03.85.77.40.50,1 rue de Charleville,71670,LE BREUIL,-,4.473003,46.8094,0.8269382828282829,0.632925264270613,1 Rue Charleville 71670 Le Breuil,housenumber,71059_0120_00001,1,1 Rue Charleville,Rue Charleville,71670,Le Breuil,"71, Saône-et-Loire, Bourgogne-Franche-Comté",71059,,,,ok
C.M.S.E.A IMPRO (ASSOCIATION),6443,,Celine LUCION,EMS,Grand Nord-Est,03 87 86 12 23,"4, rue du Calvaire",57340,MORHANGE,-,6.631717,48.926014,0.8946390909090908,,4 Rue du Calvaire 57340 Morhange,housenumber,57483_0050_00004,4,4 Rue du Calvaire,Rue du Calvaire,57340,Morhange,"57, Moselle, Grand Est",57483,,,,ok
CABINET B-SANTE CABINET INFIRMIER,14203,,Aurelien COURTOISIER,AMBULATOIRE,Centre-Est,04 28 38 24 80,5 Place de l’Abbé Pierre,69009,LYON 09,-,4.802292,45.775189,0.47266612648221334,0.46382,5 Rue de l'Oiselière 69009 Lyon,housenumber,69389_5125_00005,5,5 Rue de l'Oiselière,Rue de l'Oiselière,69009,Lyon,"69, Rhône, Auvergne-Rhône-Alpes",69389,,,Lyon 9e Arrondissement,ok
CABINET D'INFIRMIERS GAMBETTA,14402,,Caroline VILLEMUR,AMBULATOIRE,Sud-Ouest,05 58 71 01 01,9 rue Gambetta,40800,AIRE SUR L'ADOUR,-,-0.262641,43.700278,0.9134226781326781,,9 Rue Gambetta 40800 Aire-sur-l'Adour,housenumber,40001_0360_00009,9,9 Rue Gambetta,Rue Gambetta,40800,Aire-sur-l'Adour,"40, Landes, Nouvelle-Aquitaine",40001,,,,ok
CABINET FORESTIER,4031,,Aurelien COURTOISIER,EMS,Centre-Est,06 08 25 67 03,11 BIS RUE MARECHAL JOFFRE,38600,FONTAINE,-,5.696028,45.187793,0.8592003463203463,,11bis Rue Marechal Joffre 38600 Fontaine,housenumber,38169_0720_00011_bis,11bis,11bis Rue Marechal Joffre,Rue Marechal Joffre,38600,Fontaine,"38, Isère, Auvergne-Rhône-Alpes",38169,,,,ok
CABINET IDEL BALMA VIDAILHAN,17109,,Caroline VILLEMUR,PHARMACIE,Sud-Ouest,,10 Rue Etienne Ventenat,31130,BALMA,-,1.493184,43.62364,0.9046855844155843,,10 Rue Etienne Ventenat 31130 Balma,housenumber,31044_0327_00010,10,10 Rue Etienne Ventenat,Rue Etienne Ventenat,31130,Balma,"31, Haute-Garonne, Occitanie",31044,,,,ok
CABINET IDEL CALYPSO,17668,,Caroline VILLEMUR,AMBULATOIRE,Sud-Ouest,,136 ave de la Libération Charles de,33110,LE BOUSCAT,-,-0.598459,44.858627,0.7998269208211143,,136 Avenue de la Libération Charles de Gaulle 33110 Le Bouscat,housenumber,33069_0sqep7_00136,136,136 Avenue de la Libération Charles de Gaulle,Avenue de la Libération Charles de Gaulle,33110,Le Bouscat,"33, Gironde, Nouvelle-Aquitaine",33069,,,,ok
CABINET IDEL MONTEIL MARTINE,18113,,Caroline VILLEMUR,AMBULATOIRE,Sud-Ouest,,17 Cours des Aubiers,33000,BORDEAUX,-,-0.577331,44.846447,0.5924941558441558,0.5615339393939394,17 Cours de Verdun 33000 Bordeaux,housenumber,33063_9250_00017,17,17 Cours de Verdun,Cours de Verdun,33000,Bordeaux,"33, Gironde, Nouvelle-Aquitaine",33063,,,,ok
CABINET IDEL VOUBNOV LALOUX,16636,,Caroline VILLEMUR,AMBULATOIRE,Sud-Ouest,06 49 84 61 98,24 rue Achard,33300,BORDEAUX,-,-0.549053,44.865482,0.9167694805194804,,24 Rue Achard 33300 Bordeaux,housenumber,33063_0035_00024,24,24 Rue Achard,Rue Achard,33300,Bordeaux,"33, Gironde, Nouvelle-Aquitaine",33063,,,,ok
CABINET INFIRMIER A.V.I SOINS,16071,,Caroline VILLEMUR,AMBULATOIRE,Sud-Ouest,05 64 37 29 60,68 rue du Palais Gallien,33000,BORDEAUX,-,-0.581556,44.843933,0.9374808624708624,0.7160806611570247,68 Rue du Palais Gallien 33000 Bordeaux,housenumber,33063_6875_00068,68,68 Rue du Palais Gallien,Rue du Palais Gallien,33000,Bordeaux,"33, Gironde, Nouvelle-Aquitaine",33063,,,,ok
CABINET INFIRMIER ALEXANDRA MILHAUD,17609,,Aurore Auffret,AMBULATOIRE,Bretagne,,,22420,LANVELLEC,-,-3.534136,48.611198,0.9332118181818181,0.59319329004329,Lanvellec,municipality,22119,,Lanvellec,,22420,Lanvellec,"22, Côtes-d'Armor, Bretagne",22119,,,,ok
CABINET INFIRMIER BARADJI,16070,,Caroline VILLEMUR,PHARMACIE,Sud-Ouest,06 70 69 36 67,2 avenue du Professeur Vincent,33310,LORMONT,-,-0.523357,44.885666,0.9160576859504131,,2 Avenue du Professeur Vincent 33310 Lormont,housenumber,33249_0628_00002,2,2 Avenue du Professeur Vincent,Avenue du Professeur Vincent,33310,Lormont,"33, Gironde, Nouvelle-Aquitaine",33249,,,,ok
CABINET INFIRMIER BRIAND,17180,,Celine LUCION,AMBULATOIRE,Grand Nord-Est,06 32 78 87 48,131 AVENUE ARISTIDE BRIAND,68200,MULHOUSE,-,7.318919,47.746418,0.9343204656319289,,131 Avenue Aristide Briand 68200 Mulhouse,housenumber,68224_0430_00131,131,131 Avenue Aristide Briand,Avenue Aristide Briand,68200,Mulhouse,"68, Haut-Rhin, Grand Est",68224,,,,ok
CABINET INFIRMIER CAMPAS CAMILLE,18177,,Caroline VILLEMUR,AMBULATOIRE,Sud-Ouest,05 53 40 13 54,14 avenue du Maréchal Leclerc,47300,VILLENEUVE SUR LOT,-,0.704657,44.402868,0.9361245117845116,,14 Avenue du Maréchal Leclerc 47300 Villeneuve-sur-Lot,housenumber,47323_2630_00014,14,14 Avenue du Maréchal Leclerc,Avenue du Maréchal Leclerc,47300,Villeneuve-sur-Lot,"47, Lot-et-Garonne, Nouvelle-Aquitaine",47323,,,,ok
CABINET INFIRMIER DES AUBIERS,16112,,Caroline VILLEMUR,AMBULATOIRE,Sud-Ouest,06 05 46 34 35,17cours des aubiers,33300,BORDEAUX,-,-0.572509,44.872971,0.8652072192513368,0.5387999154334038,Cours des Aubiers 33300 Bordeaux,street,33063_0438,,Cours des Aubiers,Cours des Aubiers,33300,Bordeaux,"33, Gironde, Nouvelle-Aquitaine",33063,,,,ok
CABINET INFIRMIER DUSSAU,7158,,Caroline VILLEMUR,AMBULATOIRE,Sud-Ouest,05 58 71 06 06,31 rue Paul Duthil,40800,AIRE SUR L'ADOUR,-,-0.260717,43.707191,0.9177541019955654,,31 Rue Paul Duthil 40800 Aire-sur-l'Adour,housenumber,40001_0730_00031,31,31 Rue Paul Duthil,Rue Paul Duthil,40800,Aire-sur-l'Adour,"40, Landes, Nouvelle-Aquitaine",40001,,,,ok
CABINET INFIRMIER GAMBETTA,18719,,Laurent DURIEUX,AMBULATOIRE,Val de Loire,06 71 21 66 76,88 rue Gambetta,72000,LE MANS,-,0.189749,48.007103,0.919578620689655,0.6632378787878788,88 Rue Gambetta 72000 Le Mans,housenumber,72181_2240_00088,88,88 Rue Gambetta,Rue Gambetta,72000,Le Mans,"72, Sarthe, Pays de la Loire",72181,,Le Mans,,ok
CABINET INFIRMIER GUERRIER,17093,,Celine LUCION,AMBULATOIRE,Grand Nord-Est,,38 RUE D'ELBEUF,76000,ROUEN,-,1.084,49.427854,0.7924785893416928,0.7037303812316715,38 Rue d'Elbeuf 76100 Rouen,housenumber,76540_2900_00038,38,38 Rue d'Elbeuf,Rue d'Elbeuf,76100,Rouen,"76, Seine-Maritime, Normandie",76540,,,,ok
CABINET INFIRMIER LOUIS,16265,,Celine LUCION,AMBULATOIRE,Grand Nord-Est,,5 route de Hallering,57690,CREHANGE,-,6.566361,49.038826,0.5659457716701902,0.5308757575757574,Route de Mainvillers 57690 Créhange,street,57159_v4mmiy,,Route de Mainvillers,Route de Mainvillers,57690,Créhange,"57, Moselle, Grand Est",57159,,,,ok
CABINET INFIRMIER MARQUEHOSSE,15408,,Caroline VILLEMUR,AMBULATOIRE,Sud-Ouest,06 12 19 18 87,6 cours de Tournon,33000,BORDEAUX,-,-0.576399,44.845123,0.9191517630853995,,6 Cours de Tournon 33000 Bordeaux,housenumber,33063_9025_00006,6,6 Cours de Tournon,Cours de Tournon,33000,Bordeaux,"33, Gironde, Nouvelle-Aquitaine",33063,,,,ok
CABINET INFIRMIER MONDON LOLA,15696,,Caroline VILLEMUR,AMBULATOIRE,Sud-Ouest,06 87 70 37 76,7 rue de Hapchot,40130,CAPBRETON,-,-1.410984,43.648832,0.8004721925133689,,7 Rue du Hapchot 40130 Capbreton,housenumber,40065_1733_00007,7,7 Rue du Hapchot,Rue du Hapchot,40130,Capbreton,"40, Landes, Nouvelle-Aquitaine",40065,,,,ok
CABINET INFIRMIER PUCH DOMINIQUE,15298,,Caroline VILLEMUR,AMBULATOIRE,Sud-Ouest,06 13 25 23 42,31 Rue Georges Lafont,33110,LE BOUSCAT,-,-0.597689,44.867496,0.9204422009569376,0.5708958102766798,31 Rue Georges Lafont 33110 Le Bouscat,housenumber,33069_0710_00031,31,31 Rue Georges Lafont,Rue Georges Lafont,33110,Le Bouscat,"33, Gironde, Nouvelle-Aquitaine",33069,,,,ok
CABINET INFIRMIER RIVES SEINE,17951,,Celine LUCION,PHARMACIE,Grand Nord-Est,,9 rue de la Sainte Gertrude,76490,RIVES EN SEINE,-,0.722987,49.527877,0.9165748484848485,,9 Rue de la Sainte Gertrude 76490 Rives-en-Seine,housenumber,76164_0420_00009,9,9 Rue de la Sainte Gertrude,Rue de la Sainte Gertrude,76490,Rives-en-Seine,"76, Seine-Maritime, Normandie",76164,76164,Caudebec-en-Caux,,ok
CABINET INFIRMIER ROMUALD MAURIOL,9382,,Caroline VILLEMUR,AMBULATOIRE,Sud-Ouest,06 49 73 30 67,1 place Rouillaou,33320,EYSINES,-,-0.636107,44.880146,0.8213283422459892,,1 Place du Rouillaou 33320 Eysines,housenumber,33162_0529_00001,1,1 Place du Rouillaou,Place du Rouillaou,33320,Eysines,"33, Gironde, Nouvelle-Aquitaine",33162,,,,ok
CABINET INFIRMIER VALERIE LUCE,15791,,Herve QUELO,AMBULATOIRE,Centre Auvergne,,6 Rue Viviani,63000,CLERMONT FERRAND,-,3.119001,45.804255,0.8354566028708132,0.658674355179704,6 rue Viviani 63100 Clermont-Ferrand,housenumber,63113_4685_00006,6,6 rue Viviani,rue Viviani,63100,Clermont-Ferrand,"63, Puy-de-Dôme, Auvergne-Rhône-Alpes",63113,,,,ok
CABINET INFIRMIERES,13649,,Caroline VILLEMUR,AMBULATOIRE,Sud-Ouest,06 09 87 81 49,47 route de la Métairie,47250,BOUGLON,-,0.096284,44.393847,0.9010781326781326,,47 Route de la Metairie 47250 Bouglon,housenumber,47034_0026_00047,47,47 Route de la Metairie,Route de la Metairie,47250,Bouglon,"47, Lot-et-Garonne, Nouvelle-Aquitaine",47034,,,,ok
CABINET INFIRMIERS DU CLAVIER-BOUGLON,13648,,Caroline VILLEMUR,AMBULATOIRE,Sud-Ouest,06 22 14 41 01,Lieu-dit du Clavier,47250,BOUGLON,-,0.104407,44.38472,0.5685377470355731,0.5577941558441558,Impasse du Moulin du Clavier 47250 Bouglon,street,47034_0025,,Impasse du Moulin du Clavier,Impasse du Moulin du Clavier,47250,Bouglon,"47, Lot-et-Garonne, Nouvelle-Aquitaine",47034,,,,ok
CABINET LOURTIES IDEL,14403,,Caroline VILLEMUR,AMBULATOIRE,Sud-Ouest,05 58 71 66 64,12 rue Victor Lourties,40800,AIRE SUR L'ADOUR,-,-0.262657,43.701,0.9178441414141413,,12 Rue Victor Lourties 40800 Aire-sur-l'Adour,housenumber,40001_0980_00012,12,12 Rue Victor Lourties,Rue Victor Lourties,40800,Aire-sur-l'Adour,"40, Landes, Nouvelle-Aquitaine",40001,,,,ok
CABINET MAYAUD STEPHANIE,17177,,Export,AMBULATOIRE,Dom-Tom,,3 rue Victor Hugo,97215,RIVIERE SALEE,-,-60.97868,14.526848,0.9007335872235872,,3 Rue Victor Hugo 97215 Rivière-Salée,housenumber,97221_0412_00003,3,3 Rue Victor Hugo,Rue Victor Hugo,97215,Rivière-Salée,"972, Martinique",97221,,,,ok
CABINET NATALI-CELESTIN MARIE-NOELLE,15985,,Export,AMBULATOIRE,Dom-Tom,,"66, rue Joinville St-Prix",97215,RIVIERE SALEE,-,-60.978446,14.527588,0.8304360606060606,,66 Rue Joinville Saint-Prix 97215 Rivière-Salée,housenumber,97221_0220_00066,66,66 Rue Joinville Saint-Prix,Rue Joinville Saint-Prix,97215,Rivière-Salée,"972, Martinique",97221,,,,ok
CABINET PRO MANDE,17240,,Export,PHARMACIE,Dom-Tom,,quartier Plaisance,97215,RIVIERE SALEE,-,-60.939635,14.519552,0.6251983116883117,0.601711160541586,Quartier Dédé 97215 Rivière-Salée,locality,97221_ahm7qb,,Quartier Dédé,,97215,Rivière-Salée,"972, Martinique",97221,,,,ok
CABINET RAYNAUD -GUARESI,17468,,Caroline VILLEMUR,AMBULATOIRE,Sud-Ouest,05 61 36 53 05,23 Route de Mons,31130,BALMA,-,1.50017,43.61001,0.9029931168831169,0.7005885630498533,23 Route de Mons 31130 Balma,housenumber,31044_0600_00023,23,23 Route de Mons,Route de Mons,31130,Balma,"31, Haute-Garonne, Occitanie",31044,,,,ok
CABINET ROYER DOMINIQUE,14449,,Laurent DURIEUX,AMBULATOIRE,Val de Loire,02 43 33 10 52,3 Rue du Général de Gaulle,72260,MAROLLES LES BRAULTS,-,0.312704,48.252365,0.9227310463121783,,3 Rue du Général de Gaulle 72260 Marolles-les-Braults,housenumber,72189_0471_00003,3,3 Rue du Général de Gaulle,Rue du Général de Gaulle,72260,Marolles-les-Braults,"72, Sarthe, Pays de la Loire",72189,72189,Marolles-les-Braults,,ok
CAILLABET PHARMACIE,13126,PHARMACIE REFERENCE/PHR,Caroline VILLEMUR,PHARMACIE,Sud-Ouest,05 59 63 89 09,15 rue Amedée Dufourg,64600,ANGLET,-,-1.515075,43.480983,0.9126577005347594,,15 Rue Amédée Dufourg 64600 Anglet,housenumber,64024_0080_00015,15,15 Rue Amédée Dufourg,Rue Amédée Dufourg,64600,Anglet,"64, Pyrénées-Atlantiques, Nouvelle-Aquitaine",64024,,,,ok
CANALS PHARMACIE,7005,,Caroline VILLEMUR,PHARMACIE,Sud-Ouest,05 63 64 01 57,193 bis Grand Rue,82170,CANALS,-,1.292621,43.854402,0.7701227272727272,0.409829853372434,193 Grand Rue 82170 Canals,housenumber,82028_0065_00193,193,193 Grand Rue,Grand Rue,82170,Canals,"82, Tarn-et-Garonne, Occitanie",82028,,,,ok
CANINO PHIE (COMPTOIR ONLY),16974,MEDIPRIX,Dorian SANCHEZ,PHARMACIE,Sud-Est,04 91 66 41 42,15 CHEMIN DE CHATEAU GOMBERT,13013,MARSEILLE 13,-,5.420365,43.334863,0.9183596442687747,0.7669623076923077,15 Chemin de chateau gombert 13013 Marseille,housenumber,13213_2162_00015,15,15 Chemin de chateau gombert,Chemin de chateau gombert,13013,Marseille,"13, Bouches-du-Rhône, Provence-Alpes-Côte d'Azur",13213,,,Marseille 13e Arrondissement,ok
CANTAREL ROUSSIGNOL PHARMACIE (EX 10272),14914,,Herve QUELO,PHARMACIE,Centre Auvergne,04 71 47 72 79,4 Rue des Dahlias,15130,YTRAC,-,2.362296,44.913963,0.8844440752351096,,4 Rue des Dahlias 15130 Ytrac,housenumber,15267_0017_00004,4,4 Rue des Dahlias,Rue des Dahlias,15130,Ytrac,"15, Cantal, Auvergne-Rhône-Alpes",15267,,,,ok
CAPS DE ROSIERE,4155,,Celine LUCION,EMS,Grand Nord-Est,03 83 48 14 12,"4, rue Léon PARISOT",54110,ROSIERES AUX SALINES,-,6.33688,48.592179,0.9071150505050505,,4 Rue Léon Parisot 54110 Rosières-aux-Salines,housenumber,54462_0620_00004,4,4 Rue Léon Parisot,Rue Léon Parisot,54110,Rosières-aux-Salines,"54, Meurthe-et-Moselle, Grand Est",54462,,,,ok
CAPS DOMBALSE,14774,,Celine LUCION,EMS,Grand Nord-Est,0383362702,13 RUE CARNOT,54110,DOMBASLE SUR MEURTHE,-,6.349061,48.624364,0.85161,,Rue Carnot 54110 Dombasle-sur-Meurthe,street,54159_0080,,Rue Carnot,Rue Carnot,54110,Dombasle-sur-Meurthe,"54, Meurthe-et-Moselle, Grand Est",54159,,,,ok
CAREMEAU PHARMACIE,15494,UPP,Dorian SANCHEZ,PHARMACIE,Sud-Est,04 66 08 14 79,230 RUE LAENNEC,30900,NIMES,-,4.320704,43.819186,0.9035481144781143,0.6268281818181818,230 Rue Laennec 30900 Nîmes,housenumber,30189_4615_00230,230,230 Rue Laennec,Rue Laennec,30900,Nîmes,"30, Gard, Occitanie",30189,,,,ok
CARETTE PARENT PHARMACIE,3428,,Celine LUCION,PHARMACIE,Grand Nord-Est,03 20 58 41 96,1 rue Jules Guesde,59184,SAINGHIN EN WEPPES,-,2.903027,50.559679,0.9144803382663846,,1 Rue Jules Guesde 59184 Sainghin-en-Weppes,housenumber,59524_0560_00001,1,1 Rue Jules Guesde,Rue Jules Guesde,59184,Sainghin-en-Weppes,"59, Nord, Hauts-de-France",59524,,,,ok
CASABIANCA ET FILS PHARMACIE,9176,,Dorian SANCHEZ,PHARMACIE,Sud-Est,04 95 21 04 64,4 COURS GRANVAL,20000,AJACCIO,-,8.734633,41.918573,0.8236606158357771,0.5383538842975206,4 Cours Grandval 20000 Ajaccio,housenumber,2a004_0680_00004,4,4 Cours Grandval,Cours Grandval,20000,Ajaccio,"2A, Corse-du-Sud, Corse",2A004,,,,ok
CASTILLON FOYER DE VIE,7502,,Caroline VILLEMUR,EMS,Sud-Ouest,05 58 07 85 87,Chemin des Muletiers,40110,MORCENX,-,-0.923038,44.038963,0.7312779614325069,,Chemin des Muletiers 40110 Morcenx-la-Nouvelle,street,40197_0439,,Chemin des Muletiers,Chemin des Muletiers,40110,Morcenx-la-Nouvelle,"40, Landes, Nouvelle-Aquitaine",40197,40197,Morcenx,,ok
CAT DES MENHIRS,11865,,Aurore Auffret,EMS,Bretagne,02 99 08 10 64,"20, rue du Menhir",56200,LA GACILLY,-,-2.135309,47.764897,0.8995953994490358,,20 Rue du Menhir 56200 La Gacilly,housenumber,56061_0360_00020,20,20 Rue du Menhir,Rue du Menhir,56200,La Gacilly,"56, Morbihan, Bretagne",56061,56061,La Gacilly,,ok
CATHALAU PHARMACIE,7244,,Caroline VILLEMUR,PHARMACIE,Sud-Ouest,05 63 42 06 74,1 Place Bosquet,81300,GRAULHET,-,1.985716,43.764195,0.9012766666666666,0.67721,1 Place Bosquet 81300 Graulhet,housenumber,81105_0210_00001,1,1 Place Bosquet,Place Bosquet,81300,Graulhet,"81, Tarn, Occitanie",81105,,,,ok
CAUCHOISE PHARMACIE,16961,COTE PHARMA (leader Santé),Celine LUCION,PHARMACIE,Grand Nord-Est,02 35 71 30 20,7 PLACE CAUCHOISE,76000,ROUEN,X,1.085986,49.445992,0.9057158934169278,0.6837221407624633,7 Place Cauchoise 76000 Rouen,housenumber,76540_1490_00007,7,7 Place Cauchoise,Place Cauchoise,76000,Rouen,"76, Seine-Maritime, Normandie",76540,,,,ok
CAYOL SALESSE PHARMACIE,12702,GIPHAR,Laurent DURIEUX,PHARMACIE,Val de Loire,05 55 84 92 92,14 Avenue du Midi,19240,ALLASSAC,-,1.472351,45.256716,0.9048427272727272,0.511613907156673,14 Avenue Du Midi 19240 Allassac,housenumber,19005_0088_00014,14,14 Avenue Du Midi,Avenue Du Midi,19240,Allassac,"19, Corrèze, Nouvelle-Aquitaine",19005,,,,ok
CENTRALE DE BOULOGNE SUR GESSE PHARMACIE (ex 5224),18279,,Caroline VILLEMUR,PHARMACIE,Sud-Ouest,05 61 88 20 24,43 rue Porte de Dessus,31350,BOULOGNE SUR GESSE,-,0.645331,43.290103,0.9148707350096712,,43 Rue Porte de Dessus 31350 Boulogne-sur-Gesse,housenumber,31080_0090_00043,43,43 Rue Porte de Dessus,Rue Porte de Dessus,31350,Boulogne-sur-Gesse,"31, Haute-Garonne, Occitanie",31080,,,,ok
CENTRALE DE MORZINE PHARMACIE,4721,COS,Aurelien COURTOISIER,PHARMACIE,Centre-Est,04 50 74 70 23,"57, route de la Plagne",74110,MORZINE,X,6.703578,46.181848,0.9124346753246753,0.7928886124401913,57 route de la Plagne 74110 Morzine,housenumber,74191_0235_00057,57,57 route de la Plagne,route de la Plagne,74110,Morzine,"74, Haute-Savoie, Auvergne-Rhône-Alpes",74191,,,,ok
CENTRALE LEGO PHARMACIE,6968,UPP,Celine LUCION,PHARMACIE,Grand Nord-Est,03 89 45 48 96,"16, avenue de Colmar",68100,MULHOUSE,-,7.338291,47.751384,0.8279375757575757,0.6614097607655501,16 Avenue de Colmar 68200 Mulhouse,housenumber,68224_1750_00016,16,16 Avenue de Colmar,Avenue de Colmar,68200,Mulhouse,"68, Haut-Rhin, Grand Est",68224,,,,ok
CENTRALE MARSAN PHARMACIE,10015,,Dorian SANCHEZ,PHARMACIE,Sud-Est,00 377 93 30 21 01,"1, place d'Armes",98000,MONACO,-,2.447939,48.632111,0.6192124137931034,0.6174887774294671,1 Place d'Armes 91000 Évry-Courcouronnes,housenumber,91228_0100_00001,1,1 Place d'Armes,Place d'Armes,91000,Évry-Courcouronnes,"91, Essonne, Île-de-France",91228,91228,Évry,,ok
CENTRALE PHARMACIE,4625,,Herve QUELO,PHARMACIE,Centre Auvergne,04 77 24 70 20,6 rue des tilleuls,42440,NOIRETABLE,-,3.764279,45.815975,0.896121948051948,,6 Rue des Tilleuls 42440 Noirétable,housenumber,42159_0190_00006,6,6 Rue des Tilleuls,Rue des Tilleuls,42440,Noirétable,"42, Loire, Auvergne-Rhône-Alpes",42159,,,,ok
CENTRALE PHARMACIE,5214,DPGS (Apsara),Celine LUCION,PHARMACIE,Grand Nord-Est,03 21 77 11 42,11 RUE LOUIS BLANC,62970,COURCELLES LES LENS,-,3.019809,50.417706,0.9224685950413223,0.4250704856787048,11 Rue Louis Blanc 62970 Courcelles-lès-Lens,housenumber,62249_0270_00011,11,11 Rue Louis Blanc,Rue Louis Blanc,62970,Courcelles-lès-Lens,"62, Pas-de-Calais, Hauts-de-France",62249,,,,ok
CENTRALE PHARMACIE,11476,PHARM & YOU,Caroline VILLEMUR,PHARMACIE,Sud-Ouest,05 59 60 03 02,10 place Pierre et Marie Curie,64150,MOURENX,-,-0.629168,43.371763,0.9169322314049586,,10 Place Pierre Et Marie Curie 64150 Mourenx,housenumber,64410_2320_00010,10,10 Place Pierre Et Marie Curie,Place Pierre Et Marie Curie,64150,Mourenx,"64, Pyrénées-Atlantiques, Nouvelle-Aquitaine",64410,,,,ok
CENTRALE PHARMACIE,14440,RESEAU P&P,Laurent DURIEUX,PHARMACIE,Val de Loire,05 53 05 20 14,5Bis place Pasteur,24210,THENON,-,1.071093,45.13752,0.8895907917888562,,5bis Place Pasteur 24210 Thenon,housenumber,24550_0065_00005_bis,5bis,5bis Place Pasteur,Place Pasteur,24210,Thenon,"24, Dordogne, Nouvelle-Aquitaine",24550,,,,ok
CENTRALE PHARMACIE,8242,COS,Aurelien COURTOISIER,PHARMACIE,Centre-Est,04 50 39 87 24,5 COURS DE LA REPUBLIQUE,74240,GAILLARD,-,6.208311,46.18477,0.9140517715617715,,5 Cours de la République 74240 Gaillard,housenumber,74133_0400_00005,5,5 Cours de la République,Cours de la République,74240,Gaillard,"74, Haute-Savoie, Auvergne-Rhône-Alpes",74133,,,,ok
CENTRALE PHARMACIE,16371,,Aurelien COURTOISIER,PHARMACIE,Centre-Est,03 80 37 71 15,13 Rue Bernard Laureau,21110,GENLIS,-,5.219052,47.241035,0.9045955844155843,,13 Rue Bernard Laureau 21110 Genlis,housenumber,21292_0130_00013,13,13 Rue Bernard Laureau,Rue Bernard Laureau,21110,Genlis,"21, Côte-d'Or, Bourgogne-Franche-Comté",21292,,,,ok
CENTRALE PHARMACIE (WROBEL) ++,4221,,Aurelien COURTOISIER,PHARMACIE,Centre-Est,03 85 55 08 03,Centre Commercial l'Arche,71200,LE CREUSOT,-,4.426685,46.806783,0.4686865351629503,0.4354621269296741,Rue Maréchal Leclerc 71200 Le Creusot,street,71153_2670,,Rue Maréchal Leclerc,Rue Maréchal Leclerc,71200,Le Creusot,"71, Saône-et-Loire, Bourgogne-Franche-Comté",71153,,,,ok
CENTRALE PHARMACIE 87,8423,GIPHAR,Herve QUELO,PHARMACIE,Centre Auvergne,05 55 75 07 12,"6, rue Emile Frange",87500,ST YRIEIX LA PERCHE,X,1.201114,45.514251,0.8229787878787878,,6 Rue Emile Frange 87500 Saint-Yrieix-la-Perche,housenumber,87187_0885_00006,6,6 Rue Emile Frange,Rue Emile Frange,87500,Saint-Yrieix-la-Perche,"87, Haute-Vienne, Nouvelle-Aquitaine",87187,,,,ok
CENTRALE PHARMACIE COMPTOIR ONLY,10991,PHARMAVIE,Niels COLLEU,PHARMACIE,Normandie,02 31 54 07 35,2 Avenue de la Grande Cavée,14200,HEROUVILLE ST CLAIR,-,-0.336833,49.202398,0.8541618022328548,,2 Avenue de la Grande Cavée 14200 Hérouville-Saint-Clair,housenumber,14327_0700_00002,2,2 Avenue de la Grande Cavée,Avenue de la Grande Cavée,14200,Hérouville-Saint-Clair,"14, Calvados, Normandie",14327,,,,ok
CENTRALE PHARMACIE-FLEXI,10996,,Caroline VILLEMUR,PHARMACIE,Sud-Ouest,05 61 74 32 50,59 Avenue de Toulouse,31240,L'UNION,-,1.480817,43.657662,0.9128692207792207,,59 Avenue de Toulouse 31240 L'Union,housenumber,31561_0755_00059,59,59 Avenue de Toulouse,Avenue de Toulouse,31240,L'Union,"31, Haute-Garonne, Occitanie",31561,,,,ok
CENTRALE PHIE - BISCHWILLER,11924,,Celine LUCION,PHARMACIE,Grand Nord-Est,03 88 63 21 13,"18, place de la Mairie",67240,BISCHWILLER,-,7.859872,48.767491,0.9125608624708623,,18 Place de la Mairie 67240 Bischwiller,housenumber,67046_0440_00018,18,18 Place de la Mairie,Place de la Mairie,67240,Bischwiller,"67, Bas-Rhin, Grand Est",67046,,,,ok
CENTRALE PHIE SAINT-RAPHAEL,1707,,Dorian SANCHEZ,PHARMACIE,Sud-Est,04 94 95 00 40,33 RUE ALPHONSE KARR,83700,ST RAPHAEL,-,6.7672,43.423918,0.8100375388026606,0.662450606060606,33 Rue Alphonse Karr 83700 Saint-Raphaël,housenumber,83118_0150_00033,33,33 Rue Alphonse Karr,Rue Alphonse Karr,83700,Saint-Raphaël,"83, Var, Provence-Alpes-Côte d'Azur",83118,,,,ok
CENTRE ADAPEI ROUILLAC,3845,,Laurent DURIEUX,EMS,Val de Loire,05 45 65 94 82,Rue Gachère,16170,ROUILLAC,-,-0.062641,45.788398,0.7751552861952861,0.7230690909090908,La Gachère (Rouillac) 16170 Rouillac,locality,16286_yj1l5z,,La Gachère (Rouillac),,16170,Rouillac,"16, Charente, Nouvelle-Aquitaine",16286,16286,Rouillac,,ok
CENTRE BASILE MOREAU,4606,,Laurent DURIEUX,EMS,Val de Loire,02 43 62 21 21,27 Rue de Durtal,72300,PRECIGNE,-,-0.321253,47.764687,0.8961353372434017,,27 Rue de Durtal 72300 Précigné,housenumber,72244_0380_00027,27,27 Rue de Durtal,Rue de Durtal,72300,Précigné,"72, Sarthe, Pays de la Loire",72244,,,,ok
CENTRE D'HABITAT LES HAUTS DE LA CHEVRIE,15530,ADAPEI,Laurent DURIEUX,EMS,Val de Loire,02 51 45 36 00,324 CH AIZENAY,85190,AIZENAY,-,-1.623882,46.737555,0.44101131313131303,0.389680956937799,Aizenay,municipality,85003,,Aizenay,,85190,Aizenay,"85, Vendée, Pays de la Loire",85003,,,,ok
CENTRE D'HEBERGEMENT HERMINE,14583,ADAPEI,Aurore Auffret,EMS,Bretagne,02 99 48 32 16,2 Rue des Carmes,35120,DOL DE BRETAGNE,-,-1.751211,48.551354,0.9104403827751194,,2 Rue des Carmes 35120 Dol-de-Bretagne,housenumber,35095_0280_00002,2,2 Rue des Carmes,Rue des Carmes,35120,Dol-de-Bretagne,"35, Ille-et-Vilaine, Bretagne",35095,,,,ok
CENTRE DE CONVALESCENCE ILE DE BEAUTE,4594,,Dorian SANCHEZ,HÔPITAUX ET CLINIQUES ,Sud-Est,04 95 53 85 00 / 03,RN 193,20167,SARROLA CARCOPINO,-,8.837335,41.984463,0.7214224451410657,0.6498905347593583,Sarrola-Carcopino,municipality,2A271,,Sarrola-Carcopino,,20167,Sarrola-Carcopino,"2A, Corse-du-Sud, Corse",2A271,,,,ok
CENTRE DE SOINS INFIRMIER POUR TOUS,10953,,Caroline VILLEMUR,AMBULATOIRE,Sud-Ouest,05 56 97 21 36,52 avenue de Magudas,33700,MERIGNAC,-,-0.650185,44.856174,0.9252837662337663,0.6393751282051282,52 Avenue de Magudas 33700 Mérignac,housenumber,33281_1795_00052,52,52 Avenue de Magudas,Avenue de Magudas,33700,Mérignac,"33, Gironde, Nouvelle-Aquitaine",33281,,,,ok
CENTRE DE VACANCES ADAPTEES THEODORE MONOD,3883,,Celine LUCION,EMS,Grand Nord-Est,03 88 01 47 10,Fondation Sonnenhof,67290,ERCKARTSWILLER,-,7.366021,48.875865,0.4637004428904429,0.4404949586776859,Erckartswiller,municipality,67126,,Erckartswiller,,67290,Erckartswiller,"67, Bas-Rhin, Grand Est",67126,,,,ok
CENTRE DEPARTEMENTALE DE L'ENFANCE ET DE LA FAMILLE DE LA CR,7966,,Herve QUELO,EMS,Centre Auvergne,05 55 51 97 00,de la Famille de la Creuse,23000,GUERET,-,1.88709,46.177326,0.46281508348794065,0.4507081818181818,Rue Ecole de la Garde 23000 Guéret,street,23096_0686,,Rue Ecole de la Garde,Rue Ecole de la Garde,23000,Guéret,"23, Creuse, Nouvelle-Aquitaine",23096,,,,ok
CENTRE FALEP FOYER EDUCATIF,18331,,Dorian SANCHEZ,EMS,Sud-Est,04 95 22 71 52,LES ATELIERS DE SUARTELLO II,20181,AJACCIO,-,8.762204,41.947726,0.45918399286987516,0.45384811188811186,Jardins de Suartello 20090 Ajaccio,street,2A004_0557,,Jardins de Suartello,Jardins de Suartello,20090,Ajaccio,"2A, Corse-du-Sud, Corse",2A004,,,,ok
CENTRE HABITAT LEOPOLD BELLAN,2092,,Celine LUCION,EMS,Grand Nord-Est,03 44 93 48 48,27 reue Saint Eloi,60400,NOYON,-,3.002368,49.580403,0.8187587976539589,0.5446791341991343,27 Rue Saint Eloi 60400 Noyon,housenumber,60471_1270_00027,27,27 Rue Saint Eloi,Rue Saint Eloi,60400,Noyon,"60, Oise, Hauts-de-France",60471,,,,ok
CENTRE HOSPITALIER SPECIALISE,4569,,Herve QUELO,EMS,Centre Auvergne,04 70 02 26 26,rue lambersart,03360,AINAY LE CHATEAU,-,2.697173,46.717275,0.6182560330578513,0.5883519661733615,Rue de Salvert 03360 Ainay-le-Château,street,03003_0550,,Rue de Salvert,Rue de Salvert,03360,Ainay-le-Château,"03, Allier, Auvergne-Rhône-Alpes",03003,,,,ok
CEVENOLE PHIE,9910,,Dorian SANCHEZ,PHARMACIE,Sud-Est,04 66 85 31 68,COMBE DASES,30270,ST JEAN DU GARD,-,3.8847,44.110463,0.5624250649350649,0.5551096103896104,Chemin de Combe d'Ase 30270 Saint-Jean-du-Gard,street,30269_7yure4,,Chemin de Combe d'Ase,Chemin de Combe d'Ase,30270,Saint-Jean-du-Gard,"30, Gard, Occitanie",30269,,,,ok
CHAINIEUX PHIE,1241,APRIUM,Dorian SANCHEZ,PHARMACIE,Sud-Est,04 66 61 05 81,"147, Rue des Vignerons",30560,ST HILAIRE DE BRETHMAS,X,4.126075,44.080972,0.845473973063973,,147 Rue des Vignerons 30560 Saint-Hilaire-de-Brethmas,housenumber,30259_1590_00147,147,147 Rue des Vignerons,Rue des Vignerons,30560,Saint-Hilaire-de-Brethmas,"30, Gard, Occitanie",30259,,,,ok
CHAMBLAS PHARMACIE (ANC 5500),12852,,Laurent DURIEUX,PHARMACIE,Val de Loire,05 53 22 30 07,27 avenue du Monpazier,24440,BEAUMONTOIS EN PERIGORD,-,0.771023,44.76154,0.8536380808080807,,27 Avenue de Monpazier 24440 Beaumontois en Périgord,housenumber,24028_0104_00027,27,27 Avenue de Monpazier,Avenue de Monpazier,24440,Beaumontois en Périgord,"24, Dordogne, Nouvelle-Aquitaine",24028,24028,Beaumont-du-Périgord,,ok
CHAMPBERTRAND PHARMACIE,1903,,Herve QUELO,PHARMACIE,Centre Auvergne,03.86.65.12.70,Espace SAINT-PAUL,89100,SENS,X,3.268019,48.224282,0.4283240404040404,0.4262721867321867,Saint-Denis-lès-Sens,municipality,89342,,Saint-Denis-lès-Sens,,89100,Saint-Denis-lès-Sens,"89, Yonne, Bourgogne-Franche-Comté",89342,,,,ok
CHAMPIAT PHARMACIE,1917,GIPHAR,Herve QUELO,PHARMACIE,Centre Auvergne,04 73 62 95 96,4 rue des vignerons,63116,BEAUREGARD L'EVEQUE,-,3.300245,45.809741,0.911241414141414,,4 Rue des Vignerons 63116 Beauregard-l'Évêque,housenumber,63034_0124_00004,4,4 Rue des Vignerons,Rue des Vignerons,63116,Beauregard-l'Évêque,"63, Puy-de-Dôme, Auvergne-Rhône-Alpes",63034,,,,ok
CHAMPOLLION PHARMACIE (EX CAHUZAC),11877,GIPHAR,Laurent DURIEUX,PHARMACIE,Val de Loire,05 65 50 05 16,"2, Place Champollion",46100,FIGEAC,-,2.034639,44.609517,0.9003290909090909,0.5279112121212121,2 place Champollion 46100 Figeac,housenumber,46102_0510_00002,2,2 place Champollion,place Champollion,46100,Figeac,"46, Lot, Occitanie",46102,,,,ok
CHANTECLER FAM,7895,,Celine LUCION,EMS,Grand Nord-Est,02 32 80 80 10,330 rue de la Croix Saint Jean,76890,IMBLEVILLE,-,0.95783,49.706491,0.7895993036750483,0.5056316042780749,330 Rue Croix Saint Jean 76890 Imbleville,housenumber,76373_0007_00330,330,330 Rue Croix Saint Jean,Rue Croix Saint Jean,76890,Imbleville,"76, Seine-Maritime, Normandie",76373,,,,ok
CHANZY PHARMACIE - HELLEMMES LILLE,10634,GIROPHARM,Celine LUCION,PHARMACIE,Grand Nord-Est,03 20 56 66 42,"160, rue Chanzy",59260,HELLEMMES LILLE,-,3.098375,50.624719,0.9337285858585858,0.7559717224880382,160 Rue Chanzy (Hellemmes) 59260 Lille,housenumber,59350_utxbkv_00160,160,160 Rue Chanzy (Hellemmes),Rue Chanzy (Hellemmes),59260,Lille,"59, Nord, Hauts-de-France",59350,59298,Hellemmes,,ok
CHAPUIS MELLET PHARMACIE,10803,PHARMAVIE,Dorian SANCHEZ,PHARMACIE,Sud-Est,04 67 37 93 90,520 AVENUE JEAN MOULIN,34490,LIGNAN SUR ORB,-,3.17062,43.384331,0.9142957928118393,0.5827724371373307,520 Avenue Jean Moulin 34490 Lignan-sur-Orb,housenumber,34140_0145_00520,520,520 Avenue Jean Moulin,Avenue Jean Moulin,34490,Lignan-sur-Orb,"34, Hérault, Occitanie",34140,,,,ok
CHATEAU BELLEVUE FOYER D'HEBERGEMENT ADAPEI,5299,ADAPEI,Caroline VILLEMUR,EMS,Sud-Ouest,05 59 65 33 02,113 chemin Bellevue,64300,BAIGTS DE BEARN,-,-0.840324,43.534262,0.9033950110864744,,113 Chemin Bellevue 64300 Baigts-de-Béarn,housenumber,64087_0135_00113,113,113 Chemin Bellevue,Chemin Bellevue,64300,Baigts-de-Béarn,"64, Pyrénées-Atlantiques, Nouvelle-Aquitaine",64087,,,,ok
CHATEAU DE CUINCHY,5238,DOMIDEP,Celine LUCION,EMS,Grand Nord-Est,03 21 63 86 86,,62149,CUINCHY,-,2.749209,50.520712,0.9381345454545454,0.4754853359683795,Cuinchy,municipality,62262,,Cuinchy,,62149,Cuinchy,"62, Pas-de-Calais, Hauts-de-France",62262,,,,ok
CHATEIGNER PHARMACIE,2390,PHARMAVIE,Laurent DURIEUX,PHARMACIE,Val de Loire,02 51 46 74 74,"14, rue du Marché",85310,RIVES DE L'YON,-,-1.316882,46.59338,0.9061117690417689,0.6735731078224101,14 Rue du marche 85310 Rives de l'Yon,housenumber,85213_0096_00014,14,14 Rue du marche,Rue du marche,85310,Rives de l'Yon,"85, Vendée, Pays de la Loire",85213,85213,SAINT-FLORENT-DES-BOIS,,ok
CHEBLI PHARMACIE,13350,,Dorian SANCHEZ,PHARMACIE,Sud-Est,05 65 98 18 50,1 Rue du Coustel,12400,ST AFFRIQUE,-,2.839356,43.946652,0.618394214876033,0.553436192109777,1 Rue du Coustel 12400 Vabres-l'Abbaye,housenumber,12286_0025_00001,1,1 Rue du Coustel,Rue du Coustel,12400,Vabres-l'Abbaye,"12, Aveyron, Occitanie",12286,,,,ok
CHETREFF PHARMACIE (COMPTOIR ONLY),10990,Unipharm Grand Ouest (apsara),Celine LUCION,PHARMACIE,Grand Nord-Est,02 35 77 33 33,Rue ean Jaurès,76410,TOURVILLE LA RIVIERE,-,1.109536,49.331557,0.8541208456659619,0.3014022257053291,Rue Jean Jaurès 76410 Tourville-la-Rivière,street,76705_0067,,Rue Jean Jaurès,Rue Jean Jaurès,76410,Tourville-la-Rivière,"76, Seine-Maritime, Normandie",76705,,,,ok
CHEVALIER PAX PHARMACIE,2084,UNIVERS PHARMACIE,Celine LUCION,PHARMACIE,Grand Nord-Est,03 83 81 01 88,4 rue victor Hugo,54700,PONT A MOUSSON,-,6.053615,48.902633,0.9173649282296649,,4 Rue Victor Hugo 54700 Pont-à-Mousson,housenumber,54431_0720_00004,4,4 Rue Victor Hugo,Rue Victor Hugo,54700,Pont-à-Mousson,"54, Meurthe-et-Moselle, Grand Est",54431,,,,ok
CHI MONT DE MARSAN (ex POLE GERIATRIQUE DU PAYS DES SOURCES),3535,,Caroline VILLEMUR,HÔPITAUX ET CLINIQUES ,Sud-Ouest,05 58 04 18 04,Magasin de la Pharmacie,40000,MONT DE MARSAN,-,-0.466042,43.883269,0.522403602058319,0.5136154545454544,Avenue de la Houn 40000 Mont-de-Marsan,street,40192_1113,,Avenue de la Houn,Avenue de la Houn,40000,Mont-de-Marsan,"40, Landes, Nouvelle-Aquitaine",40192,,,,ok
CHOPINEAU PHARMACIE,7815,,Herve QUELO,PHARMACIE,Centre Auvergne,02 48 73 70 41,27 Grande Rue,18260,VAILLY SUR SAULDRE,-,2.649885,47.458528,0.9045376555023922,0.6418169696969697,27 Grande Rue 18260 Vailly-sur-Sauldre,housenumber,18269_0034_00027,27,27 Grande Rue,Grande Rue,18260,Vailly-sur-Sauldre,"18, Cher, Centre-Val de Loire",18269,,,,ok
CHRS MARIANNA,6878,,Caroline VILLEMUR,EMS,Sud-Ouest,05 59 40 26 67,25 Avenue Gaston,64000,PAU,-,-0.37919,43.302231,0.7059157754010695,0.7029366844919785,25 avenue Gaston Phoebus 64000 Pau,housenumber,64445_1760_00025,25,25 avenue Gaston Phoebus,avenue Gaston Phoebus,64000,Pau,"64, Pyrénées-Atlantiques, Nouvelle-Aquitaine",64445,,,,ok
CILT ST BLANCARD FAM,14151,,Caroline VILLEMUR,EMS,Sud-Ouest,05 62 66 19 19,Au Village,32140,ST BLANCARD,-,0.664267,43.340762,0.579390101010101,0.5288850505050504,Au Souville (Saint-Blancard) 32140 Cap d'Astarac,locality,32365_3u29r0,,Au Souville (Saint-Blancard),,32140,Cap d'Astarac,"32, Gers, Occitanie",32365,32365,Saint-Blancard,,ok
CITE RADIEUSE CEDRES,17768,37°,Export,EMS,Export,,ROUTE DE SAINT-SAPHORIN 23,1112,ECHICHENS,-,-1.416137,47.143216,0.3821636363636363,0.3686053168044077,Rue  d’echichens 44690 Saint-Fiacre-sur-Maine,street,44159_0004,,Rue  d’echichens,Rue  d’echichens,44690,Saint-Fiacre-sur-Maine,"44, Loire-Atlantique, Pays de la Loire",44159,,,,ok
CLEMENCEAU PHARMACIE RPET,14178,,Aurelien COURTOISIER,PHARMACIE,Centre-Est,03 80 73 66 36,12 boulevard Clémenceaux,21000,DIJON,-,5.048564,47.327564,0.7128173737373736,,12 Boulevard Georges Clemenceau 21000 Dijon,housenumber,21231_3655_00012,12,12 Boulevard Georges Clemenceau,Boulevard Georges Clemenceau,21000,Dijon,"21, Côte-d'Or, Bourgogne-Franche-Comté",21231,,,,ok
CLERC PHARMACIE,3305,,Aurelien COURTOISIER,PHARMACIE,Centre-Est,03 80 47 16 45,"59, rue du Général de Gaulle",21760,LAMARCHE SUR SAONE,-,5.385586,47.268732,0.920365874125874,,59 Rue du General de Gaulle 21760 Lamarche-sur-Saône,housenumber,21337_0176_00059,59,59 Rue du General de Gaulle,Rue du General de Gaulle,21760,Lamarche-sur-Saône,"21, Côte-d'Or, Bourgogne-Franche-Comté",21337,,,,ok
CLINIQUE DU VAL D'ANCRE,4340,,Celine LUCION,EMS,Grand Nord-Est,03 22 74 30 00,86 AV. DE LA REPUBLIQUE,80300,ALBERT,-,2.65634,50.004044,0.7842345454545454,,86 Avenue de la République 80300 Albert,housenumber,80016_1150_00086,86,86 Avenue de la République,Avenue de la République,80300,Albert,"80, Somme, Hauts-de-France",80016,,,,ok
CLOS FLEURI EXTERNES ADAPEI,12749,ADAPEI,Caroline VILLEMUR,EMS,Sud-Ouest,05 59 14 60 00,3 allées des Hirondelles,64320,BIZANOS,-,-0.332017,43.301733,0.829006247086247,,3 allée des hirondelles 64320 Bizanos,housenumber,64132_0553_00003,3,3 allée des hirondelles,allée des hirondelles,64320,Bizanos,"64, Pyrénées-Atlantiques, Nouvelle-Aquitaine",64132,,,,ok
CLOS FLEURI INTERNES ADAPEI,12748,ADAPEI,Caroline VILLEMUR,EMS,Sud-Ouest,05 59 14 60 00,3 allées des Hirondelles,64320,BIZANOS,-,-0.332017,43.301733,0.829006247086247,,3 allée des hirondelles 64320 Bizanos,housenumber,64132_0553_00003,3,3 allée des hirondelles,allée des hirondelles,64320,Bizanos,"64, Pyrénées-Atlantiques, Nouvelle-Aquitaine",64132,,,,ok
COALIA ALBERT 'LES TISSERINS',12800,,Celine LUCION,EMS,Grand Nord-Est,03 22 76 03 70,42 Rue du Chevalier de la Barre,80300,ALBERT,-,2.63966,50.004883,0.9226985950413223,,42 Rue du Chevalier de la Barre 80300 Albert,housenumber,80016_0290_00042,42,42 Rue du Chevalier de la Barre,Rue du Chevalier de la Barre,80300,Albert,"80, Somme, Hauts-de-France",80016,,,,ok
COEUR DES JALLES PHARMACIE,3383,LAFAYETTE,Caroline VILLEMUR,PHARMACIE,Sud-Ouest,05 56 05 02 44,48 avenue Montesquieu,33160,ST MEDARD EN JALLES,-,-0.716488,44.895454,0.8471809982174688,,48 Avenue Montesquieu 33160 Saint-Médard-en-Jalles,housenumber,33449_0860_00048,48,48 Avenue Montesquieu,Avenue Montesquieu,33160,Saint-Médard-en-Jalles,"33, Gironde, Nouvelle-Aquitaine",33449,,,,ok
COHEN CHEVALON PHARMACIE,14463,,Celine LUCION,PHARMACIE,Grand Nord-Est,03 21 09 09 94,439 rue de l'Impératrice,62600,BERCK,-,1.590802,50.408224,0.9252958585858584,,439 Rue de l’Impératrice 62600 Berck,housenumber,62108_0860_00439,439,439 Rue de l’Impératrice,Rue de l’Impératrice,62600,Berck,"62, Pas-de-Calais, Hauts-de-France",62108,,,,ok
COINDREAU PHARMACIE,8567,,Laurent DURIEUX,PHARMACIE,Val de Loire,05 49 43 41 56,24 bis avenue Henri Petonnet,86370,VIVONNE,-,0.265958,46.427407,0.8532853911205073,,24bis Avenue Henri Pétonnet 86370 Vivonne,housenumber,86293_0410_00024_bis,24bis,24bis Avenue Henri Pétonnet,Avenue Henri Pétonnet,86370,Vivonne,"86, Vienne, Nouvelle-Aquitaine",86293,,,,ok
COLISEE VALLEE MEDICALE RESIDENCE,7016,COLISEE,Aurelien COURTOISIER,EMS,Centre-Est,03 81 84 11 97,Quai du Canal,25110,BAUME LES DAMES,-,6.359919,47.341453,0.9045410389610389,,Quai du Canal 25110 Baume-les-Dames,street,25047_1570,,Quai du Canal,Quai du Canal,25110,Baume-les-Dames,"25, Doubs, Bourgogne-Franche-Comté",25047,,,,ok
COLLECTIF MAISON DE BEGLES,11047,,Caroline VILLEMUR,EMS,Sud-Ouest,05 56 49 60 58,14 ave de Verdun,33130,BEGLES,-,-0.551092,44.802593,0.7428027272727272,,14 Rue de Verdun 33130 Bègles,housenumber,33039_1980_00014,14,14 Rue de Verdun,Rue de Verdun,33130,Bègles,"33, Gironde, Nouvelle-Aquitaine",33039,,,,ok
COLONNA DE CINARCA PHARMACIE,9406,TOTUM,Dorian SANCHEZ,PHARMACIE,Sud-Est,04 95 22 17 26,RESIDENCE ROCADE PADULES,20000,AJACCIO,-,8.724732,41.925516,0.550588418972332,0.5018251837524178,Résidence les Hauts d’Ajaccio 20000 Ajaccio,street,2A004_A034,,Résidence les Hauts d’Ajaccio,Résidence les Hauts d’Ajaccio,20000,Ajaccio,"2A, Corse-du-Sud, Corse",2A004,,,,ok
COMPTOIR / DU MARMONT PHARMACIE,8549,,Aurelien COURTOISIER,PHARMACIE,Centre-Est,04 74 60 80 36,rue du Marmont,01480,JASSANS RIOTTIER,-,4.760237,45.987171,0.9103444963144962,,Rue du Marmont 01480 Jassans-Riottier,street,01194_0340,,Rue du Marmont,Rue du Marmont,01480,Jassans-Riottier,"01, Ain, Auvergne-Rhône-Alpes",01194,,,,ok
COMPTOIR DE BONY PHARMACIE,13436,,Aurelien COURTOISIER,PHARMACIE,Centre-Est,04 78 80 53 55,131 RUE DE LA REPUBLIQUE,69120,VAULX EN VELIN,-,4.931944,45.784791,0.9335450505050504,,131 Rue de la République 69120 Vaulx-en-Velin,housenumber,69256_0880_00131,131,131 Rue de la République,Rue de la République,69120,Vaulx-en-Velin,"69, Rhône, Auvergne-Rhône-Alpes",69256,,,,ok
COMPTOIR DE LA TOUR PHARMACIE,4211,HEXA PHARM,Aurelien COURTOISIER,PHARMACIE,Centre-Est,03 85 92 02 05,La Tour,71390,BUXY,-,4.712481,46.714324,0.5111852406417112,0.4788168044077134,Buxy,municipality,71070,,Buxy,,71390,Buxy,"71, Saône-et-Loire, Bourgogne-Franche-Comté",71070,,,,ok
COMPTOIR DE NOYER PHARMACIE (ex 10335),17936,,Aurelien COURTOISIER,PHARMACIE,Centre-Est,04 50 70 51 93,388 AV DE THONON,74200,ALLINGES,-,6.478414,46.338494,0.7601134343434344,0.5542766007905138,388 Avenue de thonon 74200 Allinges,housenumber,74005_0081_00388,388,388 Avenue de thonon,Avenue de thonon,74200,Allinges,"74, Haute-Savoie, Auvergne-Rhône-Alpes",74005,,,,ok
COMPTOIR GRANDE PHARMACIE DE CHENOVE GIPHAR,5451,GIPHAR,Aurelien COURTOISIER,PHARMACIE,Centre-Est,03 80 52 53 96,"1, rue Maxime Guillot",21300,CHENOVE,-,5.009962,47.293642,0.9156013368983956,,1 Rue Maxime Guillot 21300 Chenôve,housenumber,21166_1600_00001,1,1 Rue Maxime Guillot,Rue Maxime Guillot,21300,Chenôve,"21, Côte-d'Or, Bourgogne-Franche-Comté",21166,,,,ok
COMPTOIR MONTABERLET PHARMACIE,3746,,Aurelien COURTOISIER,PHARMACIE,Centre-Est,04 78 49 06 22,"22, avenue Jean Jaurès",69150,DECINES CHARPIEU,-,4.938246,45.767946,0.9345695041322313,,22 Avenue Jean Jaurès 69150 Décines-Charpieu,housenumber,69275_0610_00022,22,22 Avenue Jean Jaurès,Avenue Jean Jaurès,69150,Décines-Charpieu,"69, Rhône, Auvergne-Rhône-Alpes",69275,,,,ok
CONCORDIA PHARMACIE,3374,,Export,PHARMACIE,Dom-Tom,05 90 51 95 28,Rue Tah Bloudy,97150,ST MARTIN,-,-63.077062,18.067838,0.7690705882352941,,Rue Tah Bloudy 97150 Saint-Martin,street,97127_0150,,Rue Tah Bloudy,Rue Tah Bloudy,97150,Saint-Martin,"978, Saint-Martin",97801,,,,ok
CONTESSE EMS,10918,Fondation Saphir,Export,EMS,Export,0041 24 453 70 70,Le Praz-Amiet 6,1322,CROY,-,,,,,,,,,,,,,,,,,,not-found
COUPE PHARMACIE,4871,GIROPHARM,Celine LUCION,PHARMACIE,Grand Nord-Est,03 27 92 51 30,26 Rue Henri Barbusse,59580,ANICHE,-,3.249693,50.332183,0.9153240641711229,,26 Rue Henri Barbusse 59580 Aniche,housenumber,59008_0270_00026,26,26 Rue Henri Barbusse,Rue Henri Barbusse,59580,Aniche,"59, Nord, Hauts-de-France",59008,,,,ok
COUTURIER PHARMACIE (GIPHAR),5727,GIPHAR,Herve QUELO,PHARMACIE,Centre Auvergne,05 55 70 14 87,"13, avenue Pasteur",87700,AIXE SUR VIENNE,-,1.13203,45.795958,0.9152926806526804,,13 Avenue Pasteur 87700 Aixe-sur-Vienne,housenumber,87001_0600_00013,13,13 Avenue Pasteur,Avenue Pasteur,87700,Aixe-sur-Vienne,"87, Haute-Vienne, Nouvelle-Aquitaine",87001,,,,ok
CROIX DE LORRAINE PHARMACIE,3540,,Celine LUCION,PHARMACIE,Grand Nord-Est,03 87 58 72 41,"4, rue Maurice Thorez",57250,MOYEUVRE GRANDE,X,6.046176,49.251322,0.7830678529980657,,4 Avenue Maurice Thorez 57250 Moyeuvre-Grande,housenumber,57491_neazib_00004,4,4 Avenue Maurice Thorez,Avenue Maurice Thorez,57250,Moyeuvre-Grande,"57, Moselle, Grand Est",57491,,,,ok
D'ALBRET PHARMACIE,8054,MEDIPRIX,Caroline VILLEMUR,PHARMACIE,Sud-Ouest,05 58 73 53 98,29 place Gambetta,40400,TARTAS,-,-0.809788,43.832725,0.8964330303030302,,29 Place Gambetta 40400 Tartas,housenumber,40313_0039_00029,29,29 Place Gambetta,Place Gambetta,40400,Tartas,"40, Landes, Nouvelle-Aquitaine",40313,,,,ok
D'ARGOUGES EX LEMONIER LESOUHAITIER PHARMACIE,2839,LE RESEAU DES PHARMACIENS ASSOCIES,Niels COLLEU,PHARMACIE,Normandie,02 31 92 34 59,"43, rue Beauvais",14400,BAYEUX,-,-0.710515,49.289171,0.8185733431085044,,43 Rue de Beauvais 14400 Bayeux,housenumber,14047_0071_00043,43,43 Rue de Beauvais,Rue de Beauvais,14400,Bayeux,"14, Calvados, Normandie",14047,,,,ok
D'ASCAIN PHARMACIE,9413,,Caroline VILLEMUR,PHARMACIE,Sud-Ouest,05 59 54 00 42,Rue Ernest Fourneau,64310,ASCAIN,-,-1.623265,43.347761,0.9034509090909091,,Rue Ernest Fourneau 64310 Ascain,street,64065_0105,,Rue Ernest Fourneau,Rue Ernest Fourneau,64310,Ascain,"64, Pyrénées-Atlantiques, Nouvelle-Aquitaine",64065,,,,ok
D'ESPIUTE FOYER DE VIE ADAPEI 64,18562,,Caroline VILLEMUR,EMS,Sud-Ouest,05 59 38 54 70,Complexe du Château d’Espiute,64390,ESPIUTE,-,-0.917133,43.357903,0.39351454545454545,0.3445634965034965,Route d’Etchary 64390 Espiute,street,64215_0020,,Route d’Etchary,Route d’Etchary,64390,Espiute,"64, Pyrénées-Atlantiques, Nouvelle-Aquitaine",64215,,,,ok
D'ESPIUTE FOYER DE VIE ADAPEI 64,8009,ADAPEI,Caroline VILLEMUR,EMS,Sud-Ouest,05 59 38 54 70,rue Château d'Espiute,64390,ESPIUTE,-,-0.917133,43.357903,0.4627786147186146,0.40177900826446283,Route d’Etchary 64390 Espiute,street,64215_0020,,Route d’Etchary,Route d’Etchary,64390,Espiute,"64, Pyrénées-Atlantiques, Nouvelle-Aquitaine",64215,,,,ok
D'ESPIUTE FOYER HERBERGEMENT ADAPEI 64,18561,,Caroline VILLEMUR,EMS,Sud-Ouest,05 59 38 54 70,Bourg,64390,ESPIUTE,-,-0.915106,43.358804,0.6225551515151515,0.4276054545454545,Espiute,municipality,64215,,Espiute,,64390,Espiute,"64, Pyrénées-Atlantiques, Nouvelle-Aquitaine",64215,,,,ok
D'ESPIUTE MAPHA L'ARRISSSOULET ADAPEI 64,18563,,Caroline VILLEMUR,EMS,Sud-Ouest,05 59 38 54 70,Château d'Espiute,64390,ESPIUTE,-,-0.917133,43.357903,0.5083470813397128,0.43896909090909086,Route d’Etchary 64390 Espiute,street,64215_0020,,Route d’Etchary,Route d’Etchary,64390,Espiute,"64, Pyrénées-Atlantiques, Nouvelle-Aquitaine",64215,,,,ok
D'ESTAING PHARMACIE,16877,,Dorian SANCHEZ,PHARMACIE,Sud-Est,05 65 44 72 20,Rue François d'Estaing,12190,ESTAING,-,2.671706,44.554845,0.899890404040404,0.46442806324110675,Rue Francois d’Estaing 12190 Estaing,street,12098_0080,,Rue Francois d’Estaing,Rue Francois d’Estaing,12190,Estaing,"12, Aveyron, Occitanie",12098,,,,ok
D'HAROUE PHARMACIE,5486,,Celine LUCION,PHARMACIE,Grand Nord-Est,03 83 52 40 04,11 rue du Maréchal BEAUVAU,54740,HAROUE,-,6.181023,48.467332,0.8554272727272727,,11 Rue Marechal de Beauvau 54740 Haroué,housenumber,54252_0040_00011,11,11 Rue Marechal de Beauvau,Rue Marechal de Beauvau,54740,Haroué,"54, Meurthe-et-Moselle, Grand Est",54252,,,,ok
D'HASNON PHARMACIE,7020,,Celine LUCION,PHARMACIE,Grand Nord-Est,03 27 26 62 26,74 rue Jean Jaurès,59178,HASNON,-,3.386924,50.418101,0.9040471554252199,,74 Rue Jean Jaurès 59178 Hasnon,housenumber,59284_0560_00074,74,74 Rue Jean Jaurès,Rue Jean Jaurès,59178,Hasnon,"59, Nord, Hauts-de-France",59284,,,,ok
DAGAS PHARMACIE,2202,APRIUM,Caroline VILLEMUR,PHARMACIE,Sud-Ouest,05 58 05 30 30,905 avenue du Houga,40000,MONT DE MARSAN,-,-0.483936,43.880715,0.928980909090909,,905 Avenue du Houga 40000 Mont-de-Marsan,housenumber,40192_1100_00905,905,905 Avenue du Houga,Avenue du Houga,40000,Mont-de-Marsan,"40, Landes, Nouvelle-Aquitaine",40192,,,,ok
DALBIGNAT PHARMACIE,3611,,Herve QUELO,PHARMACIE,Centre Auvergne,04 73 54 10 97,"6, place du docteur Gigante",43250,STE FLORINE,X,3.318103,45.405575,0.764611515151515,0.6786063636363636,6 Place Docteur Gigante 43250 Sainte-Florine,housenumber,43185_0190_00006,6,6 Place Docteur Gigante,Place Docteur Gigante,43250,Sainte-Florine,"43, Haute-Loire, Auvergne-Rhône-Alpes",43185,,,,ok
DAMERY PHARMACIE,9074,,Dorian SANCHEZ,PHARMACIE,Sud-Est,04 92 81 18 79,RESIDENCE LA GRANDE OURSE,04400,LE SAUZE,-,6.682394,44.370095,0.5329177685950413,0.33830331046312173,Route de la Grande Ourse 04400 Enchastrayes,street,04073_0031,,Route de la Grande Ourse,Route de la Grande Ourse,04400,Enchastrayes,"04, Alpes-de-Haute-Provence, Provence-Alpes-Côte d'Azur",04073,,,,ok
DAMNON PHARMACIE,4843,GIPHAR,Aurelien COURTOISIER,PHARMACIE,Centre-Est,03 84 37 83 49,"25, rue de la République",39330,MOUCHARD,-,5.798393,46.976514,0.9062022009569377,,25 Rue de la République 39330 Mouchard,housenumber,39370_0220_00025,25,25 Rue de la République,Rue de la République,39330,Mouchard,"39, Jura, Bourgogne-Franche-Comté",39370,,,,ok
DAMY PHARMACIE,15863,,Laurent DURIEUX,PHARMACIE,Val de Loire,05 65 20 00 36,Le Bourg,46090,MERCUES,-,1.386769,44.498227,0.5464332467532467,0.5083204713804713,Mercuès,municipality,46191,,Mercuès,,46090,Mercuès,"46, Lot, Occitanie",46191,,,,ok
DASTEGUY PHARMACIE,4877,PHARM O2,Caroline VILLEMUR,PHARMACIE,Sud-Ouest,05 58 57 65 69,"20, route du Herrou",40300,ST LON LES MINES,-,-1.137374,43.610691,0.788082561983471,,Route du Herrou 40300 Saint-Lon-les-Mines,street,40269_0038,,Route du Herrou,Route du Herrou,40300,Saint-Lon-les-Mines,"40, Landes, Nouvelle-Aquitaine",40269,,,,ok
DE BAGNAC PHARMACIE,16434,,Laurent DURIEUX,PHARMACIE,Val de Loire,05 65 34 90 30,8 AVENUE JOSEPH CANTELOUBE,46270,BAGNAC SUR CELE,-,2.158343,44.665681,0.9167148484848484,,8 Avenue Joseph Canteloube 46270 Bagnac-sur-Célé,housenumber,46015_0054_00008,8,8 Avenue Joseph Canteloube,Avenue Joseph Canteloube,46270,Bagnac-sur-Célé,"46, Lot, Occitanie",46015,,,,ok
DE BALAN PHARMACIE,17591,PHARMACORP,Celine LUCION,PHARMACIE,Grand Nord-Est,03 24 27 29 22,11 AVENUE CHARLES DE GAULLE,08200,BALAN,-,4.957394,49.693858,0.9133399533799532,,11 Avenue Charles de Gaulle 08200 Balan,housenumber,08043_0040_00011,11,11 Avenue Charles de Gaulle,Avenue Charles de Gaulle,08200,Balan,"08, Ardennes, Grand Est",08043,,,,ok
DE BARBY PHARMACIE+++,4944,,Aurelien COURTOISIER,PHARMACIE,Centre-Est,04 79 70 39 84,immeuble Mont Cenis,73230,BARBY,X,5.978413,45.571345,0.7097986217008797,,Le Mont Cenis 73230 Barby,locality,73030_08fmqa,,Le Mont Cenis,,73230,Barby,"73, Savoie, Auvergne-Rhône-Alpes",73030,,,,ok
DE BAZEILLES PHARMACIE,18249,,Celine LUCION,PHARMACIE,Grand Nord-Est,03 24 27 40 15,26 RUE FLAMANVILLE,08140,BAZEILLES,-,4.977745,49.678382,0.9049477005347593,,26 Rue Flamanville 08140 Bazeilles,housenumber,08053_0220_00026,26,26 Rue Flamanville,Rue Flamanville,08140,Bazeilles,"08, Ardennes, Grand Est",08053,08053,Bazeilles,,ok
DE BEL FONT PHARMACIE,4459,,Herve QUELO,PHARMACIE,Centre Auvergne,05 55 39 98 56,48 AVENUE DE LIMOGES,87270,COUZEIX,-,1.23814,45.864589,0.9167977005347593,0.5347942917547568,48 Avenue de Limoges 87270 Couzeix,housenumber,87050_0440_00048,48,48 Avenue de Limoges,Avenue de Limoges,87270,Couzeix,"87, Haute-Vienne, Nouvelle-Aquitaine",87050,,,,ok
DE BIGAULT PHARMACIE,1910,,Laurent DURIEUX,PHARMACIE,Val de Loire,02 54 83 62 26,27 rue Henri de Joffre,41210,NEUNG SUR BEUVRON,-,1.804695,47.534744,0.8257416883116883,,27 Rue Henri de Geoffre 41210 Neung-sur-Beuvron,housenumber,41159_0129_00027,27,27 Rue Henri de Geoffre,Rue Henri de Geoffre,41210,Neung-sur-Beuvron,"41, Loir-et-Cher, Centre-Val de Loire",41159,,,,ok
DE BRETAGNE PHARMACIE GIPHAR,8211,GIPHAR,Aurore Auffret,PHARMACIE,Bretagne,02 99 30 12 19,2 Place de Bretagne,35000,RENNES,-,-1.684779,48.109517,0.9146481818181817,0.668800606060606,2 Place de Bretagne 35000 Rennes,housenumber,35238_1200_00002,2,2 Place de Bretagne,Place de Bretagne,35000,Rennes,"35, Ille-et-Vilaine, Bretagne",35238,,,,ok
DE CARNOULES PHARMACIE,9927,,Dorian SANCHEZ,PHARMACIE,Sud-Est,04 94 28 33 18,C.C INTERMARCHE,83660,CARNOULES,-,6.192189,43.299794,0.45708696969696966,0.44583042283298097,Carnoules,municipality,83033,,Carnoules,,83660,Carnoules,"83, Var, Provence-Alpes-Côte d'Azur",83033,,,,ok
DE CARRESSE PHARMACIE (EX 4875),14333,,Caroline VILLEMUR,PHARMACIE,Sud-Ouest,05 59 38 47 01,Bourg,64270,CARRESSE CASSABER,-,-0.997736,43.483493,0.7388366233766233,0.6608057142857142,Carresse-Cassaber,municipality,64168,,Carresse-Cassaber,,64270,Carresse-Cassaber,"64, Pyrénées-Atlantiques, Nouvelle-Aquitaine",64168,,,,ok
DE CAVAN PHARMACIE,16345,,Aurore Auffret,PHARMACIE,Bretagne,02 96 35 85 64,7 RUE MAURICE DENIS,22140,CAVAN,X,-3.347605,48.672145,0.8901353372434015,,7 Rue Maurice Denis 22140 Cavan,housenumber,22034_0105_00007,7,7 Rue Maurice Denis,Rue Maurice Denis,22140,Cavan,"22, Côtes-d'Armor, Bretagne",22034,,,,ok
DE CHAMPAGNAC DE BEL AIR PHARMACIE,4522,NEPENTHES,Laurent DURIEUX,PHARMACIE,Val de Loire,05 53 04 97 66,Lieudit Les Chaminades,24530,CHAMPAGNAC DE BELAIR,-,0.701443,45.38896,0.6763360942760943,0.5682336363636363,Rue des Chaminades 24530 Champagnac-de-Belair,street,24096_0025,,Rue des Chaminades,Rue des Chaminades,24530,Champagnac-de-Belair,"24, Dordogne, Nouvelle-Aquitaine",24096,,,,ok
DE CHANTEMERLE PHARMACIE,9646,,Herve QUELO,PHARMACIE,Centre Auvergne,04 73 37 62 40,43 avenue de la Paix,63830,DURTOL,-,3.053645,45.790808,0.9015217630853994,,43 avenue de la Paix 63830 Durtol,housenumber,63141_0135_00043,43,43 avenue de la Paix,avenue de la Paix,63830,Durtol,"63, Puy-de-Dôme, Auvergne-Rhône-Alpes",63141,,,,ok
DE CHAUVE PHARMACIE (NEW 17572),10222,UNIPHARM Loire Ocean (Apsara),Aurore Auffret,PHARMACIE,Bretagne,02 40 82 82 42,1 RUE D'ARTHON,44320,CHAUVE,-,-1.984868,47.150574,0.8894953872053871,0.5669114285714284,1 Rue d’Arthon 44320 Chauvé,housenumber,44038_axooiy_00001,1,1 Rue d’Arthon,Rue d’Arthon,44320,Chauvé,"44, Loire-Atlantique, Pays de la Loire",44038,,,,ok
DE CLOHARS PHIE - CLOHARS CARNOET - COMPTOIR ONLY,10411,,Aurore Auffret,PHARMACIE,Bretagne,02 98 71 55 43,4 place du Général de Gaulle,29360,CLOHARS CARNOET,-,-3.585451,47.795714,0.8632845454545455,,4 Place Général de Gaulle 29360 Clohars-Carnoët,housenumber,29031_0270_00004,4,4 Place Général de Gaulle,Place Général de Gaulle,29360,Clohars-Carnoët,"29, Finistère, Bretagne",29031,,,,ok
DE COCAGNE PHARMACIE,14752,,Caroline VILLEMUR,PHARMACIE,Sud-Ouest,05 63 74 30 19,7 Rue du Barry,81570,VIELMUR SUR AGOUT,-,2.091033,43.620537,0.9045731100478468,0.7026803030303029,7 Rue du Barry 81570 Vielmur-sur-Agout,housenumber,81315_0008_00007,7,7 Rue du Barry,Rue du Barry,81570,Vielmur-sur-Agout,"81, Tarn, Occitanie",81315,,,,ok
DE COTE CHAUDE PHARMACIE (new 16715),8531,,Herve QUELO,PHARMACIE,Centre Auvergne,04 77 32 27 85,"10, Place de la République",42000,ST ETIENNE,-,4.363693,45.444725,0.8344073517786561,0.70641332688588,10 Place de la République 42000 Saint-Étienne,housenumber,42218_7620_00010,10,10 Place de la République,Place de la République,42000,Saint-Étienne,"42, Loire, Auvergne-Rhône-Alpes",42218,,,,ok
DE COUCY PHARMACIE,16534,COTE PHARMA (leader Santé),Celine LUCION,PHARMACIE,Grand Nord-Est,03 23 52 70 14,2 AVENUE ALTENKESSEL,02380,COUCY LE CHATEAU AUFFRIQUE,-,3.31491,49.519748,0.8877215702479337,,2 Avenue d'Altenkessel 02380 Coucy-le-Château-Auffrique,housenumber,02217_0005_00002,2,2 Avenue d'Altenkessel,Avenue d'Altenkessel,02380,Coucy-le-Château-Auffrique,"02, Aisne, Hauts-de-France",02217,,,,ok
DE CUNLHAT PHARMACIE (NE PAS LIVRER VOIR AVEC HERVE),4199,,Herve QUELO,PHARMACIE,Centre Auvergne,04 73 72 20 12,"8, Place du Marché",63590,CUNLHAT,-,3.56045,45.632226,0.8921017008797653,,8 Place du Marché 63590 Cunlhat,housenumber,63132_0200_00008,8,8 Place du Marché,Place du Marché,63590,Cunlhat,"63, Puy-de-Dôme, Auvergne-Rhône-Alpes",63132,,,,ok
DE DIDIER PHARMACIE,9132,Groupe PHR ANTILLE,Export,PHARMACIE,Dom-Tom,05 96 60 05 17,"60, rue du Professeur Raymond Garcin",97200,FORT DE FRANCE,-,-61.079772,14.626271,0.9293941322314049,,Rue du Professeur Raymond Garcin 97200 Fort-de-France,street,97209_1558,,Rue du Professeur Raymond Garcin,Rue du Professeur Raymond Garcin,97200,Fort-de-France,"972, Martinique",97209,,,,ok
DE FLAYOSC PHARMACIE,11065,,Dorian SANCHEZ,PHARMACIE,Sud-Est,04 94 70 42 31,29 BD JEAN MOULIN,83780,FLAYOSC,-,6.394903,43.534424,0.7043170163170163,0.4549808658008658,29 Boulevard Jean Moulin 83780 Flayosc,housenumber,83058_0085_00029,29,29 Boulevard Jean Moulin,Boulevard Jean Moulin,83780,Flayosc,"83, Var, Provence-Alpes-Côte d'Azur",83058,,,,ok
DE FONTCOUVERTE PHARMACIE,16396,,Laurent DURIEUX,PHARMACIE,Val de Loire,05 46 93 66 41,11 route du Chemin Vieux,17100,FONTCOUVERTE,-,-0.58604,45.763505,0.9106476109936574,0.6110072727272727,11 Route du Chemin Vieux 17100 Fontcouverte,housenumber,17164_0048_00011,11,11 Route du Chemin Vieux,Route du Chemin Vieux,17100,Fontcouverte,"17, Charente-Maritime, Nouvelle-Aquitaine",17164,,,,ok
DE FRESSANGES PHARMACIE (GIPHAR),7965,GIPHAR,Herve QUELO,PHARMACIE,Centre Auvergne,05 55 52 01 66,"1, rue Léon BLUM",23000,GUERET,-,1.874017,46.161863,0.7184024793388429,,1 Avenue Leon Blum 23000 Guéret,housenumber,23096_1205_00001,1,1 Avenue Leon Blum,Avenue Leon Blum,23000,Guéret,"23, Creuse, Nouvelle-Aquitaine",23096,,,,ok
DE GASCOGNE PHARMACIE (new 17803),6761,CAP-UNIPHARM,Caroline VILLEMUR,PHARMACIE,Sud-Ouest,05 56 65 61 23,2 Route de Mont de Marsan,33840,CAPTIEUX,-,-0.261882,44.291973,0.9116072727272726,,2 Route de Mont-de-marsan 33840 Captieux,housenumber,33095_0063_00002,2,2 Route de Mont-de-marsan,Route de Mont-de-marsan,33840,Captieux,"33, Gironde, Nouvelle-Aquitaine",33095,,,,ok
DE GUAGNO FAM HD2A,12394,,Dorian SANCHEZ,EMS,Sud-Est,04 95 25 09 20,POGGIOLO,20125,POGGIOLO,-,8.892389,42.173526,0.5535619008264463,0.48873093841642223,Poggiolo,municipality,2A240,,Poggiolo,,20125,Poggiolo,"2A, Corse-du-Sud, Corse",2A240,,,,ok
DE GUETHARY DE PHARMACIE,4002,PHARMACTIVE,Caroline VILLEMUR,PHARMACIE,Sud-Ouest,05 59 26 50 43,RN 10,64210,GUETHARY,-,-1.608833,43.420612,0.6496695693779904,0.5141685266457681,Guéthary,municipality,64249,,Guéthary,,64210,Guéthary,"64, Pyrénées-Atlantiques, Nouvelle-Aquitaine",64249,,,,ok
DE JARDIN PHARMACIE,9263,,Aurelien COURTOISIER,PHARMACIE,Centre-Est,04 74 31 66 36,24 PLACE MICHEL BERARDIER,38200,JARDIN,-,4.903026,45.508899,0.5115234449760765,0.5115234449760765,Bérardier 38200 Jardin,locality,38199_g8t6nj,,Bérardier,,38200,Jardin,"38, Isère, Auvergne-Rhône-Alpes",38199,,,,ok
DE JOUVENCE PHARMACIE,0544,GIROPHARM,Aurelien COURTOISIER,PHARMACIE,Centre-Est,03 85 94 12 12,Avenue de la promenade,71460,ST GENGOUX LE NATIONAL,-,4.663814,46.613824,0.8364284297520661,,Avenue de la Promenade 71460 Saint-Gengoux-le-National,street,71417_0780,,Avenue de la Promenade,Avenue de la Promenade,71460,Saint-Gengoux-le-National,"71, Saône-et-Loire, Bourgogne-Franche-Comté",71417,,,,ok
DE JUJURIEUX PHARMACIE,4558,,Aurelien COURTOISIER,PHARMACIE,Centre-Est,04 74 36 81 66,Avenue des Sports,01640,JUJURIEUX,-,5.407779,46.041323,0.896317217630854,,Avenue des Sports 01640 Jujurieux,street,01199_0113,,Avenue des Sports,Avenue des Sports,01640,Jujurieux,"01, Ain, Auvergne-Rhône-Alpes",01199,,,,ok
DE KERVENT PHARMACIE,15663,AELIA,Aurore Auffret,PHARMACIE,Bretagne,02 98 69 01 62,CC Leclerc,29250,ST POL DE LEON,-,-3.986791,48.683582,0.5349256771799629,,Rue du General Leclerc 29250 Saint-Pol-de-Léon,street,29259_0610,,Rue du General Leclerc,Rue du General Leclerc,29250,Saint-Pol-de-Léon,"29, Finistère, Bretagne",29259,,,,ok
DE L' HARMONIE PHARMACIE,16123,,Caroline VILLEMUR,PHARMACIE,Sud-Ouest,05 61 65 12 20,9 Cr Gabriel Fauré,09000,FOIX,-,1.609081,42.964246,0.7210910160427807,,9 Cours Gabriel Faure 09000 Foix,housenumber,09122_vnb52o_00009,9,9 Cours Gabriel Faure,Cours Gabriel Faure,09000,Foix,"09, Ariège, Occitanie",09122,,,,ok
DE L' HOTEL DE VILLE PHARMACIE,2355,,Celine LUCION,PHARMACIE,Grand Nord-Est,03 20 37 41 83,7 rue de Tourcoing,59126,LINSELLES,-,3.080995,50.738715,0.9102595187165774,,7 Rue de Tourcoing 59126 Linselles,housenumber,59352_0600_00007,7,7 Rue de Tourcoing,Rue de Tourcoing,59126,Linselles,"59, Nord, Hauts-de-France",59352,,,,ok
DE L'ABBAYE PHARMACIE,16027,,Celine LUCION,PHARMACIE,Grand Nord-Est,0235301097,46 RUE LEON GAMBETTA,76290,MONTIVILLIERS,-,0.192114,49.544682,0.9204227272727271,,46 Rue Léon Gambetta 76290 Montivilliers,housenumber,76447_0500_00046,46,46 Rue Léon Gambetta,Rue Léon Gambetta,76290,Montivilliers,"76, Seine-Maritime, Normandie",76447,,,,ok
DE L'ABBAYE PHIE - ARRAS - COMPTOIR ONLY,11327,GIROPHARM,Celine LUCION,PHARMACIE,Grand Nord-Est,03 21 23 11 65,"24, rue Méaulens",62000,ARRAS,-,2.774825,50.293626,0.9048972053872053,,24 Rue Méaulens 62000 Arras,housenumber,62041_2610_00024,24,24 Rue Méaulens,Rue Méaulens,62000,Arras,"62, Pas-de-Calais, Hauts-de-France",62041,,,,ok
DE L'ALBARINE PHARMACIE,7393,,Aurelien COURTOISIER,PHARMACIE,Centre-Est,04 74 36 33 35,99 RUE DR TEMPORAL,01230,ST RAMBERT EN BUGEY,-,5.44012,45.948942,0.7229770370370369,,99 Rue Docteur Temporal 01230 Saint-Rambert-en-Bugey,housenumber,01384_0110_00099,99,99 Rue Docteur Temporal,Rue Docteur Temporal,01230,Saint-Rambert-en-Bugey,"01, Ain, Auvergne-Rhône-Alpes",01384,,,,ok
DE L'AMBRE PHARMACIE,4076,,Aurelien COURTOISIER,PHARMACIE,Centre-Est,04 78 29 62 91,"2, rue Henon",69004,LYON 04,-,4.83216,45.779582,0.5654923444976077,,2 Rue Jacques-Louis Hénon 69004 Lyon,housenumber,69384_3465_00002,2,2 Rue Jacques-Louis Hénon,Rue Jacques-Louis Hénon,69004,Lyon,"69, Rhône, Auvergne-Rhône-Alpes",69384,,,Lyon 4e Arrondissement,ok
DE L'AQUEDUC PHARMACIE (EX SORBA ET GIANNOTTI),10139,,Dorian SANCHEZ,PHARMACIE,Sud-Est,04 95 22 35 96,Route de Mezzavia,20167,MEZZAVIA,-,8.778316,41.950042,0.48216587412587414,0.4381958093126386,Les Hauts de Mezzavia 20167 Ajaccio,street,2a004_e9cqrj,,Les Hauts de Mezzavia,Les Hauts de Mezzavia,20167,Ajaccio,"2A, Corse-du-Sud, Corse",2A004,,,,ok
DE L'ARCHANGE (EX BROCKERS) PHARMACIE,4096,,Celine LUCION,PHARMACIE,Grand Nord-Est,03 88 70 60 38,"90, rue du Mal de Lattre de Tassigny",67440,MARMOUTIER,-,7.375948,48.697379,0.8499063476874001,,90 Rue du Maréchal de Lattre de Tassigny 67440 Marmoutier,housenumber,67283_0140_00090,90,90 Rue du Maréchal de Lattre de Tassigny,Rue du Maréchal de Lattre de Tassigny,67440,Marmoutier,"67, Bas-Rhin, Grand Est",67283,,,,ok
DE L'ARZON PHARMACIE,6105,,Herve QUELO,PHARMACIE,Centre Auvergne,04 71 03 20 56,"9, Faubourg Constant",43500,CRAPONNE SUR ARZON,-,3.845701,45.330674,0.9135013223140496,,9 Faubourg Constant 43500 Craponne-sur-Arzon,housenumber,43080_0051_00009,9,9 Faubourg Constant,Faubourg Constant,43500,Craponne-sur-Arzon,"43, Haute-Loire, Auvergne-Rhône-Alpes",43080,,,,ok
DE L'AUXOIS PHARMACIE,18222,,Aurelien COURTOISIER,PHARMACIE,Centre-Est,03 80 90 80 77,5 Pl. de la Libération,21320,POUILLY EN AUXOIS,-,4.555961,47.26221,0.8189335064935064,,5 Place de la Liberation 21320 Pouilly-en-Auxois,housenumber,21501_0540_00005,5,5 Place de la Liberation,Place de la Liberation,21320,Pouilly-en-Auxois,"21, Côte-d'Or, Bourgogne-Franche-Comté",21501,,,,ok
DE L'EAU VIVE (MME GERLING) PHARMACIE,3333,,Celine LUCION,PHARMACIE,Grand Nord-Est,03 88 80 83 13,"4, avenue de la gare",67110,NIEDERBRONN LES BAINS,-,7.63435,48.953192,0.869828742746615,0.6846894417862838,Avenue de la Gare 67110 Niederbronn-les-Bains,street,67324_48sq5p,,Avenue de la Gare,Avenue de la Gare,67110,Niederbronn-les-Bains,"67, Bas-Rhin, Grand Est",67324,,,,ok
DE L'ECHASSIER / ROULLAND PHARMACIE,10823,,Laurent DURIEUX,PHARMACIE,Val de Loire,05 45 32 50 44,17 RUE DE L'ANISSERIE,16100,CHATEAUBERNARD,-,-0.306312,45.684598,0.910265411255411,,17 Rue de l’Anisserie 16100 Châteaubernard,housenumber,16089_0390_00017,17,17 Rue de l’Anisserie,Rue de l’Anisserie,16100,Châteaubernard,"16, Charente, Nouvelle-Aquitaine",16089,,,,ok
DE L'ECOLE MILITAIRE PHARMACIE- COMPTOIR ONLY,11572,,Celine LUCION,PHARMACIE,Grand Nord-Est,03 25 92 80 46,86 Rue de l'École Militaire,10500,BRIENNE LE CHATEAU,-,4.526921,48.392523,0.9262531468531469,,86 Rue de l’École Militaire 10500 Brienne-le-Château,housenumber,10064_0200_00086,86,86 Rue de l’École Militaire,Rue de l’École Militaire,10500,Brienne-le-Château,"10, Aube, Grand Est",10064,,,,ok
DE L'ECOLE NORMALE PHARMACIE,0175,ROCADE,Caroline VILLEMUR,PHARMACIE,Sud-Ouest,05 56 08 52 99,29 rue de l'Ecole Normale,33200,BORDEAUX,-,-0.60044,44.84736,0.9386736363636362,,29 Rue de l'Ecole Normale 33200 Bordeaux,housenumber,33063_d9p7mb_00029,29,29 Rue de l'Ecole Normale,Rue de l'Ecole Normale,33200,Bordeaux,"33, Gironde, Nouvelle-Aquitaine",33063,,,,ok
DE L'EGLISE (EX SYSSAU-SALINGUE) PHARMACIE,2601,GIROPHARM,Celine LUCION,PHARMACIE,Grand Nord-Est,03 20 29 21 18,"15, avenue Jean Baptiste Lebas",59480,LA BASSEE,-,2.80442,50.531007,0.9203777777777777,,15 Avenue Jean-Baptiste Lebas 59480 La Bassée,housenumber,59051_0200_00015,15,15 Avenue Jean-Baptiste Lebas,Avenue Jean-Baptiste Lebas,59480,La Bassée,"59, Nord, Hauts-de-France",59051,,,,ok
DE L'EGLISE PHARMACIE,14198,,Aurelien COURTOISIER,PHARMACIE,Centre-Est,04 50 60 93 34,65 PLACE DE L'EGLISE,74540,ST FELIX,-,5.972129,45.80137,0.7883780186480186,0.4580275757575757,65 Place de l'Église 74540 Saint-Félix,housenumber,74233_0210_00065,65,65 Place de l'Église,Place de l'Église,74540,Saint-Félix,"74, Haute-Savoie, Auvergne-Rhône-Alpes",74233,,,,ok
DE L'EGLISE PHARMACIE RPET,12215,BSR,Aurore Auffret,PHARMACIE,Bretagne,02.96.38.90.14,2 PLACE DE L'EGLISE,22420,PLOUARET,-,-3.472776,48.611492,0.9003031550802139,0.49220170731707313,2 Place de l'Eglise 22420 Plouaret,housenumber,22207_0076_00002,2,2 Place de l'Eglise,Place de l'Eglise,22420,Plouaret,"22, Côtes-d'Armor, Bretagne",22207,,,,ok
DE L'EMERAUDE PHARMACIE,15754,,Dorian SANCHEZ,PHARMACIE,Sud-Est,04 94 81 01 61,164 AV. LUCIEN BOEUF,83370,ST AYGULF,-,6.722114,43.382921,0.593909627039627,0.328187680890538,164 Avenue Lucien BOEUF 83370 Fréjus,housenumber,83061_0313_00164,164,164 Avenue Lucien BOEUF,Avenue Lucien BOEUF,83370,Fréjus,"83, Var, Provence-Alpes-Côte d'Azur",83061,,,,ok
DE L'EQUILIBRE PHARMACIE,4975,COS,Aurelien COURTOISIER,PHARMACIE,Centre-Est,03 80 36 70 93,Zone commerciale La Mirabelle,21310,MIREBEAU,-,5.308529,47.399181,0.4721457010785824,0.46887828473413373,Allee de la Millerote 21310 Mirebeau-sur-Bèze,street,21416_0245,,Allee de la Millerote,Allee de la Millerote,21310,Mirebeau-sur-Bèze,"21, Côte-d'Or, Bourgogne-Franche-Comté",21416,,,,ok
DE L'ESPLANADE PHARMACIE,16788,,Aurelien COURTOISIER,PHARMACIE,Centre-Est,04 78 49 27 16,374 Av. Jean Jaurès,69150,DECINES CHARPIEU,-,4.975367,45.772072,0.8177890513833992,,374 Avenue Jean Jaurès 69150 Décines-Charpieu,housenumber,69275_0610_00374,374,374 Avenue Jean Jaurès,Avenue Jean Jaurès,69150,Décines-Charpieu,"69, Rhône, Auvergne-Rhône-Alpes",69275,,,,ok
DE L'ESTUAIRE PHARMACIE,3578,BSR,Aurore Auffret,PHARMACIE,Bretagne,02 99 88 41 07,1 RUE DRINDEJONC DES MOULINAIS,35730,PLEURTUIT,X,-2.059088,48.579359,0.6934309388971683,,1 Rue du Centenaire Brindejonc des Moulinais 35730 Pleurtuit,housenumber,35228_0090_00001,1,1 Rue du Centenaire Brindejonc des Moulinais,Rue du Centenaire Brindejonc des Moulinais,35730,Pleurtuit,"35, Ille-et-Vilaine, Bretagne",35228,,,,ok
DE L'ETOILE PHARMACIE,3817,PHARMA 10,Celine LUCION,PHARMACIE,Grand Nord-Est,03 88 70 46 85,26 rue Principale,67290,LA PETITE PIERRE,-,7.320865,48.857779,0.9079818181818181,0.5908536363636363,26 Rue Principale 67290 La Petite-Pierre,housenumber,67371_0045_00026,26,26 Rue Principale,Rue Principale,67290,La Petite-Pierre,"67, Bas-Rhin, Grand Est",67371,,,,ok
DE L'EUROPE PHARMACIE,7780,PHARMABEST,Laurent DURIEUX,PHARMACIE,Val de Loire,05 46 42 32 00,1 Passage de l'Europe,17000,LA ROCHELLE,-,-1.178835,46.166331,0.9219299533799532,0.7159647568710358,1 Passage de l'Europe 17000 La Rochelle,housenumber,17300_3032_00001,1,1 Passage de l'Europe,Passage de l'Europe,17000,La Rochelle,"17, Charente-Maritime, Nouvelle-Aquitaine",17300,,,,ok
DE L'EUROPE PHARMACIE (PILULIERS 2120),6326,PHARMAVIE,Aurore Auffret,PHARMACIE,Bretagne,02 40 42 15 10,38 Boulevard Liantwit Major,44510,LE POULIGUEN,-,-2.435983,47.278524,0.5459437617554859,,38 Avenue de Llantwit Major 44510 Le Pouliguen,housenumber,44135_0706_00038,38,38 Avenue de Llantwit Major,Avenue de Llantwit Major,44510,Le Pouliguen,"44, Loire-Atlantique, Pays de la Loire",44135,,,,ok
DE L'HEURTEBISE PHARMACIE,16908,GIROPHARM,Celine LUCION,PHARMACIE,Grand Nord-Est,03 20 07 37 94,195 RUE SADI CARNOT,59320,HAUBOURDIN,-,2.995565,50.611564,0.9208567676767675,,195 Rue Sadi Carnot 59320 Haubourdin,housenumber,59286_0830_00195,195,195 Rue Sadi Carnot,Rue Sadi Carnot,59320,Haubourdin,"59, Nord, Hauts-de-France",59286,,,,ok
DE L'HORLOGE PHARMACIE,1032,GIPHAR,Dorian SANCHEZ,PHARMACIE,Sud-Est,04 67 47 72 26,66 avenue di Général Grollier,34570,PIGNAN,-,3.770414,43.585183,0.8413048760330578,,66 Avenue du General Grollier 34570 Pignan,housenumber,34202_0070_00066,66,66 Avenue du General Grollier,Avenue du General Grollier,34570,Pignan,"34, Hérault, Occitanie",34202,,,,ok
DE L'HOTEL DE VILLE PHARMACIE,4083,PHARMA REFLEX,Caroline VILLEMUR,PHARMACIE,Sud-Ouest,05 59 65 95 27,16 place Charles de Gaulle,64120,ST PALAIS,-,-1.033002,43.327657,0.8142691699604742,,16 Place Charles de Gaulle 64120 Saint-Palais,housenumber,64493_0215_00016,16,16 Place Charles de Gaulle,Place Charles de Gaulle,64120,Saint-Palais,"64, Pyrénées-Atlantiques, Nouvelle-Aquitaine",64493,,,,ok
DE L'HOTEL DE VILLE PHARMACIE,4844,GIROPHARM,Laurent DURIEUX,PHARMACIE,Val de Loire,02 54 88 00 09,60 AVENUE DE L'HOTEL DE VILLE,41600,LAMOTTE BEUVRON,-,2.024979,47.601902,0.9272084670231729,,60 Avenue de l'Hôtel de Ville 41600 Lamotte-Beuvron,housenumber,41106_0390_00060,60,60 Avenue de l'Hôtel de Ville,Avenue de l'Hôtel de Ville,41600,Lamotte-Beuvron,"41, Loir-et-Cher, Centre-Val de Loire",41106,,,,ok
DE L'HOTEL DE VILLE PHARMACIE,14197,,Herve QUELO,PHARMACIE,Centre Auvergne,04 71 48 02 74,"2, Place de l'Hôtel de Ville",15000,AURILLAC,-,2.445108,44.929815,0.9210990476190476,0.7599779797979798,2 Place de l’Hotel de Ville 15000 Aurillac,housenumber,15014_1200_00002,2,2 Place de l’Hotel de Ville,Place de l’Hotel de Ville,15000,Aurillac,"15, Cantal, Auvergne-Rhône-Alpes",15014,,,,ok
DE L'HOTEL DE VILLE PHARMACIE (SORTIE),4257,GIPHAR,Celine LUCION,PHARMACIE,Grand Nord-Est,03 27 49 12 73,50 RUE MARECHAL JOFFRE,59530,LE QUESNOY,-,3.638892,50.247377,0.8522412554112554,,50 Rue du Marechal Joffre 59530 Le Quesnoy,housenumber,59481_0640_00050,50,50 Rue du Marechal Joffre,Rue du Marechal Joffre,59530,Le Quesnoy,"59, Nord, Hauts-de-France",59481,,,,ok
DE L'IMAGINAIRE ( ANC. PRIN) PHARMACIE,4735,RESEAU P&P,Laurent DURIEUX,PHARMACIE,Val de Loire,05 53 51 79 05,6 avenue Charles de Gaulle,24120,TERRASSON LA VILLEDIEU,-,1.303328,45.12765,0.8826984415584415,0.39131181818181815,6 Avenue Charles de Gaulle 24120 Terrasson-Lavilledieu,housenumber,24547_0143_00006,6,6 Avenue Charles de Gaulle,Avenue Charles de Gaulle,24120,Terrasson-Lavilledieu,"24, Dordogne, Nouvelle-Aquitaine",24547,,,,ok
DE L'ITON PHARMACIE RPET,4229,,IDF,PHARMACIE,Ile de France,02 32 33 28 31,76 avenue Aristide BRIAND,27930,GRAVIGNY,-,1.163317,49.047845,0.9211418181818181,,76 Avenue Aristide Briand 27930 Gravigny,housenumber,27299_1016_00076,76,76 Avenue Aristide Briand,Avenue Aristide Briand,27930,Gravigny,"27, Eure, Normandie",27299,,,,ok
DE L'IZOARD PHARMACIE,12006,PHARMAVIE,Dorian SANCHEZ,PHARMACIE,Sud-Est,04 92 21 01 13,30 Rue Centrale,05100,BRIANCON,-,6.636489,44.895607,0.9014384848484848,0.7033515702479338,30 Rue Centrale 05100 Briançon,housenumber,05023_0120_00030,30,30 Rue Centrale,Rue Centrale,05100,Briançon,"05, Hautes-Alpes, Provence-Alpes-Côte d'Azur",05023,,,,ok
DE L'OFFICE DU TOURISME PHIE,18305,,Dorian SANCHEZ,PHARMACIE,Sud-Est,04 92 52 01 04,2 PLACE JEAN MARCELLIN,05000,GAP,-,6.079633,44.559243,0.9075154545454545,,2 Place Jean Marcellin 05000 Gap,housenumber,05061_1225_00002,2,2 Place Jean Marcellin,Place Jean Marcellin,05000,Gap,"05, Hautes-Alpes, Provence-Alpes-Côte d'Azur",05061,05061,Gap,,ok
DE L'OLIVETTE PHIE,9739,,Dorian SANCHEZ,PHARMACIE,Sud-Est,04 67 73 84 15,RUE DE L'OLIVETTE,34190,GANGES,-,3.706577,43.934742,0.8952784848484848,0.7519452617079889,Rue de l'Olivette 34190 Ganges,street,34111_0431,,Rue de l'Olivette,Rue de l'Olivette,34190,Ganges,"34, Hérault, Occitanie",34111,,,,ok
DE L'ONYX PHARMACIE,12170,,Dorian SANCHEZ,PHARMACIE,Sud-Est,04 93 45 36 51,111 - 113 BD Sadi Carnot,06110,LE CANNET,-,7.016589,43.567776,0.6779691304347826,,113 Boulevard Sadi Carnot 06110 Le Cannet,housenumber,06030_0300_00113,113,113 Boulevard Sadi Carnot,Boulevard Sadi Carnot,06110,Le Cannet,"06, Alpes-Maritimes, Provence-Alpes-Côte d'Azur",06030,,,,ok
DE L'OPPIDUM PHIE,18629,,Dorian SANCHEZ,PHARMACIE,Sud-Est,04 67 37 00 37,3 RUE FRANCOIS RABELAIS,34440,NISSAN LEZ ENSERUNE,-,3.129822,43.287737,0.9142333395176251,,3 Rue François Rabelais 34440 Nissan-lez-Enserune,housenumber,34183_0112_00003,3,3 Rue François Rabelais,Rue François Rabelais,34440,Nissan-lez-Enserune,"34, Hérault, Occitanie",34183,,,,ok
DE L'UXELLO PHARMACIE,11131,GIPHAR,Laurent DURIEUX,PHARMACIE,Val de Loire,05 65 32 40 21,77 avenue Henri Barbier,46110,VAYRAC,-,1.704266,44.952777,0.9039922222222221,,77 Avenue Henri Barbier 46110 Vayrac,housenumber,46330_0030_00077,77,77 Avenue Henri Barbier,Avenue Henri Barbier,46110,Vayrac,"46, Lot, Occitanie",46330,,,,ok
DE LA BAIE PHARMACIE,3889,LEADER SANTE,Aurore Auffret,PHARMACIE,Bretagne,02 40 61 10 90,"Ccal Intermarché avenue du Baulois,",44380,PORNICHET,-,-2.334855,47.262391,0.6115218181818182,,Avenue du Baulois 44380 Pornichet,street,44132_0100,,Avenue du Baulois,Avenue du Baulois,44380,Pornichet,"44, Loire-Atlantique, Pays de la Loire",44132,,,,ok
DE LA BARRE PHARMACIE,12877,GIROPHARM,Caroline VILLEMUR,PHARMACIE,Sud-Ouest,05 59 63 18 11,28 avenue de l'Adour,64600,ANGLET,-,-1.500612,43.514322,0.9224072176308539,,28 Avenue de l' Adour 64600 Anglet,housenumber,64024_0010_00028,28,28 Avenue de l' Adour,Avenue de l' Adour,64600,Anglet,"64, Pyrénées-Atlantiques, Nouvelle-Aquitaine",64024,,,,ok
DE LA BASILIQUE PHARMACIE (EX 9414),12009,,Dorian SANCHEZ,PHARMACIE,Sud-Est,04 94 59 75 47,22 Rue Gutenberg,83470,ST MAXIMIN LA STE BAUME,-,5.859666,43.453519,0.7637370707070706,,22 Rue Gutenberg 83470 Saint-Maximin-la-Sainte-Baume,housenumber,83116_0520_00022,22,22 Rue Gutenberg,Rue Gutenberg,83470,Saint-Maximin-la-Sainte-Baume,"83, Var, Provence-Alpes-Côte d'Azur",83116,,,,ok
